var disabled_parking = [
  {
    "FID": 0,
    "Y_Lat": -33.861831,
    "X_Lon": 151.20788,
    "Facility": "Secure taxi rank",
    "Street": "George Street",
    "Notes": "",
    "Status": "Verified",
    "Name": "",
    "Name2": ""
  },
  {
    "FID": 1,
    "Y_Lat": -33.878324,
    "X_Lon": 151.213913,
    "Facility": "Secure taxi rank",
    "Street": "Oxford Street (limited hours)",
    "Notes": "With ramp",
    "Status": "Verified",
    "Name": "",
    "Name2": ""
  },
  {
    "FID": 2,
    "Y_Lat": -33.873108,
    "X_Lon": 151.208665,
    "Facility": "Secure taxi rank",
    "Street": "Park Street",
    "Notes": "With ramp",
    "Status": "Verified",
    "Name": "",
    "Name2": ""
  },
  {
    "FID": 3,
    "Y_Lat": -33.865736,
    "X_Lon": 151.211414,
    "Facility": "Secure taxi rank",
    "Street": "Phillip Street",
    "Notes": "",
    "Status": "Verified",
    "Name": "",
    "Name2": ""
  },
  {
    "FID": 4,
    "Y_Lat": -33.854579,
    "X_Lon": 151.208176,
    "Facility": "Secure taxi rank",
    "Street": "Hickson Rd",
    "Notes": "",
    "Status": "Verified",
    "Name": "",
    "Name2": ""
  },
  {
    "FID": 5,
    "Y_Lat": -33.856209,
    "X_Lon": 151.206357,
    "Facility": "Secure taxi rank",
    "Street": "Hickson Rd",
    "Notes": "",
    "Status": "Verified",
    "Name": "",
    "Name2": ""
  },
  {
    "FID": 6,
    "Y_Lat": -33.856918,
    "X_Lon": 151.204514,
    "Facility": "Secure taxi rank",
    "Street": "Hickson Rd",
    "Notes": "",
    "Status": "Verified",
    "Name": "",
    "Name2": ""
  },
  {
    "FID": 7,
    "Y_Lat": -33.864288,
    "X_Lon": 151.207045,
    "Facility": "Secure taxi rank",
    "Street": "Jamison Street",
    "Notes": "",
    "Status": "Verified",
    "Name": "",
    "Name2": ""
  },
  {
    "FID": 8,
    "Y_Lat": -33.8606,
    "X_Lon": 151.206482,
    "Facility": "Secure taxi rank",
    "Street": "Cumberland Street",
    "Notes": "",
    "Status": "Verified",
    "Name": "",
    "Name2": ""
  },
  {
    "FID": 9,
    "Y_Lat": -33.85805,
    "X_Lon": 151.208995,
    "Facility": "Secure taxi rank",
    "Street": "George Street",
    "Notes": "",
    "Status": "Verified",
    "Name": "",
    "Name2": ""
  },
  {
    "FID": 10,
    "Y_Lat": -33.865314,
    "X_Lon": 151.206515,
    "Facility": "Secure taxi rank",
    "Street": "Carrington Street",
    "Notes": "",
    "Status": "Verified",
    "Name": "",
    "Name2": ""
  },
  {
    "FID": 11,
    "Y_Lat": -33.868742,
    "X_Lon": 151.205811,
    "Facility": "Secure taxi rank",
    "Street": "King Street",
    "Notes": "",
    "Status": "Verified",
    "Name": "",
    "Name2": ""
  },
  {
    "FID": 12,
    "Y_Lat": -33.863844,
    "X_Lon": 151.203967,
    "Facility": "Secure taxi rank",
    "Street": "Kent Street",
    "Notes": "",
    "Status": "Verified",
    "Name": "",
    "Name2": ""
  },
  {
    "FID": 13,
    "Y_Lat": -33.864634,
    "X_Lon": 151.208749,
    "Facility": "Secure taxi rank",
    "Street": "Pitt Street",
    "Notes": "With ramp",
    "Status": "Verified",
    "Name": "",
    "Name2": ""
  },
  {
    "FID": 14,
    "Y_Lat": -33.865788,
    "X_Lon": 151.211109,
    "Facility": "Secure taxi rank",
    "Street": "Phillip Street",
    "Notes": "With ramp",
    "Status": "Verified",
    "Name": "",
    "Name2": ""
  },
  {
    "FID": 15,
    "Y_Lat": -33.870249,
    "X_Lon": 151.203849,
    "Facility": "Secure taxi rank",
    "Street": "Sussex Street",
    "Notes": "",
    "Status": "Verified",
    "Name": "",
    "Name2": ""
  },
  {
    "FID": 16,
    "Y_Lat": -33.879116,
    "X_Lon": 151.206022,
    "Facility": "Secure taxi rank",
    "Street": "Campbell Street",
    "Notes": "With ramp",
    "Status": "Verified",
    "Name": "",
    "Name2": ""
  },
  {
    "FID": 17,
    "Y_Lat": -33.877369,
    "X_Lon": 151.203554,
    "Facility": "Secure taxi rank",
    "Street": "Goulburn Street",
    "Notes": "",
    "Status": "Verified",
    "Name": "",
    "Name2": ""
  },
  {
    "FID": 18,
    "Y_Lat": -33.868423,
    "X_Lon": 151.216921,
    "Facility": "Secure taxi rank",
    "Street": "Art Gallery Rd",
    "Notes": "",
    "Status": "Verified",
    "Name": "",
    "Name2": ""
  },
  {
    "FID": 19,
    "Y_Lat": -33.86909,
    "X_Lon": 151.219951,
    "Facility": "Secure taxi rank",
    "Street": "Cowper Wharf Rd",
    "Notes": "",
    "Status": "Verified",
    "Name": "",
    "Name2": ""
  },
  {
    "FID": 20,
    "Y_Lat": -33.87423,
    "X_Lon": 151.205926,
    "Facility": "Secure taxi rank",
    "Street": "Bathurst Street",
    "Notes": "",
    "Status": "Verified",
    "Name": "",
    "Name2": ""
  },
  {
    "FID": 21,
    "Y_Lat": -33.860548,
    "X_Lon": 151.208472,
    "Facility": "Secure taxi rank",
    "Street": "George Street (limited hours)",
    "Notes": "",
    "Status": "Verified",
    "Name": "",
    "Name2": ""
  },
  {
    "FID": 22,
    "Y_Lat": -33.858245,
    "X_Lon": 151.209059,
    "Facility": "Secure taxi rank",
    "Street": "George Street (limited hours)",
    "Notes": "",
    "Status": "Verified",
    "Name": "",
    "Name2": ""
  },
  {
    "FID": 23,
    "Y_Lat": -33.861424,
    "X_Lon": 151.209719,
    "Facility": "Taxi rank",
    "Street": "Alfred Street",
    "Notes": "",
    "Status": "Verified",
    "Name": "",
    "Name2": ""
  },
  {
    "FID": 24,
    "Y_Lat": -33.861831,
    "X_Lon": 151.20788,
    "Facility": "Taxi rank",
    "Street": "George Street",
    "Notes": "",
    "Status": "Verified",
    "Name": "",
    "Name2": ""
  },
  {
    "FID": 25,
    "Y_Lat": -33.862805,
    "X_Lon": 151.203777,
    "Facility": "Taxi rank",
    "Street": "Margaret Street & Gas Lane (front of Stamford Hotel)",
    "Notes": "",
    "Status": "Verified",
    "Name": "",
    "Name2": ""
  },
  {
    "FID": 26,
    "Y_Lat": -33.870779,
    "X_Lon": 151.208677,
    "Facility": "Taxi rank",
    "Street": "Market Street",
    "Notes": "",
    "Status": "Verified",
    "Name": "",
    "Name2": ""
  },
  {
    "FID": 27,
    "Y_Lat": -33.865543,
    "X_Lon": 151.209185,
    "Facility": "Taxi rank",
    "Street": "O'Connell Street",
    "Notes": "",
    "Status": "Verified",
    "Name": "",
    "Name2": ""
  },
  {
    "FID": 28,
    "Y_Lat": -33.86566,
    "X_Lon": 151.211375,
    "Facility": "Taxi rank",
    "Street": "Phillip Street",
    "Notes": "",
    "Status": "Verified",
    "Name": "",
    "Name2": ""
  },
  {
    "FID": 29,
    "Y_Lat": -33.865948,
    "X_Lon": 151.211108,
    "Facility": "Taxi rank",
    "Street": "Phillip Street",
    "Notes": "",
    "Status": "Verified",
    "Name": "",
    "Name2": ""
  },
  {
    "FID": 30,
    "Y_Lat": -33.869865,
    "X_Lon": 151.203693,
    "Facility": "Taxi rank",
    "Street": "Sussex Street",
    "Notes": "",
    "Status": "Verified",
    "Name": "",
    "Name2": ""
  },
  {
    "FID": 31,
    "Y_Lat": -33.868879,
    "X_Lon": 151.205966,
    "Facility": "Taxi rank",
    "Street": "York Street (limited space)",
    "Notes": "",
    "Status": "Verified",
    "Name": "",
    "Name2": ""
  },
  {
    "FID": 32,
    "Y_Lat": -33.87572,
    "X_Lon": 151.203433,
    "Facility": "Taxi rank",
    "Street": "Harbour Street",
    "Notes": "",
    "Status": "Verified",
    "Name": "",
    "Name2": ""
  },
  {
    "FID": 33,
    "Y_Lat": -33.873091,
    "X_Lon": 151.201943,
    "Facility": "Taxi rank",
    "Street": "Harbour Street",
    "Notes": "",
    "Status": "Verified",
    "Name": "",
    "Name2": ""
  },
  {
    "FID": 34,
    "Y_Lat": -33.87824325,
    "X_Lon": 151.2144021,
    "Facility": "Stairs",
    "Street": "Riley Street",
    "Notes": "Use adjacent path (gradient may be steep)",
    "Status": "Verified",
    "Name": "Oxford Square",
    "Name2": ""
  },
  {
    "FID": 35,
    "Y_Lat": -33.87082771,
    "X_Lon": 151.2155555,
    "Facility": "Stairs",
    "Street": "St Marys Road",
    "Notes": "Carpark access",
    "Status": "Verified",
    "Name": "The Domain",
    "Name2": ""
  },
  {
    "FID": 36,
    "Y_Lat": -33.8601613,
    "X_Lon": 151.2076978,
    "Facility": "Stairs",
    "Street": "Cumberland Place",
    "Notes": "Steps only (no wheelchair access)",
    "Status": "Verified",
    "Name": "Cumberland Place Stairs",
    "Name2": ""
  },
  {
    "FID": 37,
    "Y_Lat": -33.8665437,
    "X_Lon": 151.2039615,
    "Facility": "Stairs",
    "Street": "Sussex Lane",
    "Notes": "Use Erskine Street",
    "Status": "Verified",
    "Name": "Sussex Lane Steps",
    "Name2": ""
  },
  {
    "FID": 38,
    "Y_Lat": -33.85887985,
    "X_Lon": 151.2073351,
    "Facility": "Stairs",
    "Street": "Grosvenor Walk",
    "Notes": "Accessible with assistance. Enter via Playfair St or Atherton St",
    "Status": "Verified",
    "Name": "Argyle Steps",
    "Name2": ""
  },
  {
    "FID": 39,
    "Y_Lat": -33.8718701,
    "X_Lon": 151.2219058,
    "Facility": "Stairs",
    "Street": "Between Sydney Place and Brougham Street",
    "Notes": "Steps only (no wheelchair access)",
    "Status": "Verified",
    "Name": "Hills Stairs",
    "Name2": ""
  },
  {
    "FID": 40,
    "Y_Lat": -33.85773602,
    "X_Lon": 151.2149619,
    "Facility": "Stairs",
    "Street": "Circular Quay East",
    "Notes": "Use internal lift",
    "Status": "Verified",
    "Name": "Opera House Stairs",
    "Name2": ""
  },
  {
    "FID": 41,
    "Y_Lat": -33.8709259,
    "X_Lon": 151.2024654,
    "Facility": "Stairs",
    "Street": "Sussex Street",
    "Notes": "Use lift access",
    "Status": "Verified",
    "Name": "Pyrmont Bridge",
    "Name2": ""
  },
  {
    "FID": 42,
    "Y_Lat": -33.87848296,
    "X_Lon": 151.2203696,
    "Facility": "Stairs",
    "Street": "Whites Lane Steps",
    "Notes": "Steps only (no wheelchair access)",
    "Status": "Verified",
    "Name": "Whites Lane",
    "Name2": ""
  },
  {
    "FID": 43,
    "Y_Lat": -33.86356344,
    "X_Lon": 151.2196903,
    "Facility": "Stairs",
    "Street": "The Royal Botanic Garden",
    "Notes": "Use adjacent path",
    "Status": "Verified",
    "Name": "Mare & Foal Lawn Stairs",
    "Name2": ""
  },
  {
    "FID": 44,
    "Y_Lat": -33.87663238,
    "X_Lon": 151.2098069,
    "Facility": "Stairs",
    "Street": "Museum Station entrance",
    "Notes": "Enter Hyde Park via ramp access on Elizabeth St near Bathurst St",
    "Status": "Verified",
    "Name": "Hyde Park South",
    "Name2": ""
  },
  {
    "FID": 45,
    "Y_Lat": -33.86130926,
    "X_Lon": 151.2106602,
    "Facility": "Stairs",
    "Street": "Alfred Street",
    "Notes": "Use station lift access",
    "Status": "Verified",
    "Name": "Circular Quay Station",
    "Name2": ""
  },
  {
    "FID": 46,
    "Y_Lat": -33.868027,
    "X_Lon": 151.201758,
    "Facility": "Stairs",
    "Street": "Lime Street",
    "Notes": "Use ramp corner of Lime Street and Cuthbert Street",
    "Status": "Verified",
    "Name": "King Street Wharf",
    "Name2": ""
  },
  {
    "FID": 47,
    "Y_Lat": -33.8584373,
    "X_Lon": 151.2015277,
    "Facility": "Stairs",
    "Street": "Barangaroo Reserve",
    "Notes": "",
    "Status": "Verified",
    "Name": "Barangaroo",
    "Name2": ""
  },
  {
    "FID": 48,
    "Y_Lat": -33.86902366,
    "X_Lon": 151.222998,
    "Facility": "Stairs",
    "Street": "Between Cowper Wharf Road and Victoria Street",
    "Notes": "Use Brougham Street or Victoria Street (beware of steep gradient)",
    "Status": "Verified",
    "Name": "McElhone Stairs",
    "Name2": ""
  },
  {
    "FID": 49,
    "Y_Lat": -33.8653965,
    "X_Lon": 151.2136578,
    "Facility": "Stairs",
    "Street": "The Royal Botanic Garden",
    "Notes": "Use adjacent path",
    "Status": "Verified",
    "Name": "Morshead Fountain Gate",
    "Name2": ""
  },
  {
    "FID": 50,
    "Y_Lat": -33.85989839,
    "X_Lon": 151.2157564,
    "Facility": "Stairs",
    "Street": "The Royal Botanic Garden",
    "Notes": "Use adjacent path",
    "Status": "Verified",
    "Name": "Government House Grounds",
    "Name2": ""
  },
  {
    "FID": 51,
    "Y_Lat": -33.86537649,
    "X_Lon": 151.2033539,
    "Facility": "Stairs",
    "Street": "Sussex Street",
    "Notes": "Use lift access",
    "Status": "Verified",
    "Name": "King Street Wharf Footbridge",
    "Name2": ""
  },
  {
    "FID": 52,
    "Y_Lat": -33.8635119,
    "X_Lon": 151.2212251,
    "Facility": "Stairs",
    "Street": "The Royal Botanic Garden",
    "Notes": "Use adjacent path to north",
    "Status": "Verified",
    "Name": "Andrew (Boy) Charlton Pool",
    "Name2": ""
  },
  {
    "FID": 53,
    "Y_Lat": -33.87015111,
    "X_Lon": 151.2224636,
    "Facility": "Stairs",
    "Street": "Brougham Street",
    "Notes": "Use Brougham Street or Victoria Street (beware of steep gradient)",
    "Status": "Verified",
    "Name": "Horderns Stairs",
    "Name2": ""
  },
  {
    "FID": 54,
    "Y_Lat": -33.87211515,
    "X_Lon": 151.2226304,
    "Facility": "Stairs",
    "Street": "Between Brougham Street and Victoria Street",
    "Notes": "Steps only (no wheelchair access)",
    "Status": "Verified",
    "Name": "Butlers Stairs",
    "Name2": ""
  },
  {
    "FID": 55,
    "Y_Lat": -33.85822035,
    "X_Lon": 151.2009418,
    "Facility": "Stairs",
    "Street": "Barangaroo Reserve",
    "Notes": "",
    "Status": "Verified",
    "Name": "Barangaroo",
    "Name2": ""
  },
  {
    "FID": 56,
    "Y_Lat": -33.85534785,
    "X_Lon": 151.208031,
    "Facility": "Stairs",
    "Street": "Lower Fort Street",
    "Notes": "Use Pottinger Street (beware of steep gradient)",
    "Status": "Verified",
    "Name": "Hickson Steps",
    "Name2": ""
  },
  {
    "FID": 57,
    "Y_Lat": -33.86462215,
    "X_Lon": 151.2138799,
    "Facility": "Stairs",
    "Street": "The Royal Botanic Garden",
    "Notes": "Use adjacent path",
    "Status": "Verified",
    "Name": "Rose Garden Pavillion",
    "Name2": ""
  },
  {
    "FID": 58,
    "Y_Lat": -33.8587745,
    "X_Lon": 151.2091294,
    "Facility": "Stairs",
    "Street": "Circular Quay West",
    "Notes": "Steps only (no wheelchair access)",
    "Status": "Verified",
    "Name": "Cadmans Cottage Steps",
    "Name2": ""
  },
  {
    "FID": 59,
    "Y_Lat": -33.8542526,
    "X_Lon": 151.208564,
    "Facility": "Stairs",
    "Street": "Lower Fort Street",
    "Notes": "Steps only (no wheelchair access)",
    "Status": "Verified",
    "Name": "Dawes Point Park Steps",
    "Name2": ""
  },
  {
    "FID": 60,
    "Y_Lat": -33.86041625,
    "X_Lon": 151.2064007,
    "Facility": "Stairs",
    "Street": "Cumberland Street",
    "Notes": "Steps only (no wheelchair access)",
    "Status": "Verified",
    "Name": "Cahill Walk Stairs",
    "Name2": ""
  },
  {
    "FID": 61,
    "Y_Lat": -33.85775655,
    "X_Lon": 151.2154322,
    "Facility": "Stairs",
    "Street": "Circular Quay East",
    "Notes": "Use internal lift",
    "Status": "Verified",
    "Name": "Opera House Forecourt",
    "Name2": ""
  },
  {
    "FID": 62,
    "Y_Lat": -33.85834014,
    "X_Lon": 151.21491,
    "Facility": "Stairs",
    "Street": "The Royal Botanic Garden",
    "Notes": "Steps only (no wheelchair access) - use Queen Elizabeth II Gate",
    "Status": "Verified",
    "Name": "Tarpeian Way Stairs",
    "Name2": ""
  },
  {
    "FID": 63,
    "Y_Lat": -33.85738245,
    "X_Lon": 151.2058937,
    "Facility": "Stairs",
    "Street": "Downshire Street",
    "Notes": "Steps only (no wheelchair access)",
    "Status": "Verified",
    "Name": "Pottinger Park Stairs",
    "Name2": ""
  },
  {
    "FID": 64,
    "Y_Lat": -33.86695365,
    "X_Lon": 151.2175423,
    "Facility": "Stairs",
    "Street": "The Royal Botanic Garden",
    "Notes": "Use Woolloomooloo Gate entrance",
    "Status": "Verified",
    "Name": "Royal Botanic Gardens Offices",
    "Name2": ""
  },
  {
    "FID": 65,
    "Y_Lat": -33.87009958,
    "X_Lon": 151.2187665,
    "Facility": "Stairs",
    "Street": "Sir John Young Crescent",
    "Notes": "Use lift",
    "Status": "Verified",
    "Name": "Eastern Distributor Footbridge Stairs",
    "Name2": ""
  },
  {
    "FID": 66,
    "Y_Lat": -33.87005638,
    "X_Lon": 151.216542,
    "Facility": "Stairs",
    "Street": "Sir John Young Crescent",
    "Notes": "Use carpark access",
    "Status": "Verified",
    "Name": "The Domain Pitches",
    "Name2": ""
  },
  {
    "FID": 67,
    "Y_Lat": -33.86017881,
    "X_Lon": 151.2074319,
    "Facility": "Stairs",
    "Street": "Cumberland Place",
    "Notes": "Steps only (no wheelchair access)",
    "Status": "Verified",
    "Name": "Cumberland Place Stairs",
    "Name2": ""
  },
  {
    "FID": 68,
    "Y_Lat": -33.868218,
    "X_Lon": 151.2182718,
    "Facility": "Stairs",
    "Street": "Corner of Cowper Wharf Road and Lincoln Crescent",
    "Notes": "Steps only (no wheelchair access)",
    "Status": "Verified",
    "Name": "Cowper Wharf Road Steps",
    "Name2": ""
  },
  {
    "FID": 69,
    "Y_Lat": -33.8574908,
    "X_Lon": 151.2142581,
    "Facility": "Stairs",
    "Street": "Circular Quay East",
    "Notes": "Use internal lift",
    "Status": "Verified",
    "Name": "Circular Quay Western Boardwalk",
    "Name2": ""
  },
  {
    "FID": 70,
    "Y_Lat": -33.8645823,
    "X_Lon": 151.2197154,
    "Facility": "Stairs",
    "Street": "The Royal Botanic Garden",
    "Notes": "Steps only (no wheelchair access)",
    "Status": "Verified",
    "Name": "Henry Lawson Gate",
    "Name2": ""
  },
  {
    "FID": 71,
    "Y_Lat": -33.8674906,
    "X_Lon": 151.201687,
    "Facility": "Stairs",
    "Street": "Lime Street",
    "Notes": "Use ramp to south",
    "Status": "Verified",
    "Name": "King Street Wharf",
    "Name2": ""
  },
  {
    "FID": 72,
    "Y_Lat": -33.86100688,
    "X_Lon": 151.2038409,
    "Facility": "Stairs",
    "Street": "Corner of Kent Street and High Street",
    "Notes": "Steps only (no wheelchair access)",
    "Status": "Verified",
    "Name": "Agar Steps",
    "Name2": ""
  },
  {
    "FID": 73,
    "Y_Lat": -33.8669415,
    "X_Lon": 151.2016229,
    "Facility": "Stairs",
    "Street": "Lime Street",
    "Notes": "Use ramp to south",
    "Status": "Verified",
    "Name": "King Street Wharf",
    "Name2": ""
  },
  {
    "FID": 74,
    "Y_Lat": -33.8791272,
    "X_Lon": 151.2008644,
    "Facility": "Stairs",
    "Street": "Macarthur Street",
    "Notes": "No access - area under construction",
    "Status": "Verified",
    "Name": "Macarthur Street Stairs",
    "Name2": ""
  },
  {
    "FID": 75,
    "Y_Lat": -33.8778544,
    "X_Lon": 151.216226,
    "Facility": "Stairs",
    "Street": "Kings Lane",
    "Notes": "Steps only (no wheelchair access)",
    "Status": "Verified",
    "Name": "Kings Lane Steps",
    "Name2": ""
  },
  {
    "FID": 76,
    "Y_Lat": -33.87491675,
    "X_Lon": 151.2098504,
    "Facility": "Stairs",
    "Street": "Entrance to Musuem Station",
    "Notes": "Museum Station is not wheelchair accessible",
    "Status": "Verified",
    "Name": "Hyde Park South",
    "Name2": ""
  },
  {
    "FID": 77,
    "Y_Lat": -33.8605726,
    "X_Lon": 151.2130087,
    "Facility": "Stairs",
    "Street": "Macquarie Street",
    "Notes": "Steps only (no wheelchair access)",
    "Status": "Verified",
    "Name": "Moore Stairs",
    "Name2": ""
  },
  {
    "FID": 78,
    "Y_Lat": -33.85747645,
    "X_Lon": 151.2145162,
    "Facility": "Stairs",
    "Street": "Circular Quay East",
    "Notes": "Use internal lift",
    "Status": "Verified",
    "Name": "Opera House Forecourt",
    "Name2": ""
  },
  {
    "FID": 79,
    "Y_Lat": -33.8801159,
    "X_Lon": 151.212137,
    "Facility": "Stairs",
    "Street": "Hunt Street",
    "Notes": "Use adjacent path",
    "Status": "Verified",
    "Name": "Harmony Park Stairs",
    "Name2": ""
  },
  {
    "FID": 80,
    "Y_Lat": -33.8670163,
    "X_Lon": 151.2187348,
    "Facility": "Stairs",
    "Street": "The Royal Botanic Garden",
    "Notes": "Use ramp access at Finger Wharf Marina",
    "Status": "Verified",
    "Name": "Lincoln Crescent Substation Steps",
    "Name2": ""
  },
  {
    "FID": 81,
    "Y_Lat": -33.87418645,
    "X_Lon": 151.206622,
    "Facility": "Stairs",
    "Street": "George Street",
    "Notes": "Use lift access across the street",
    "Status": "Verified",
    "Name": "Town Hall Station",
    "Name2": ""
  },
  {
    "FID": 82,
    "Y_Lat": -33.86724536,
    "X_Lon": 151.218002,
    "Facility": "Stairs",
    "Street": "The Royal Botanic Garden",
    "Notes": "Use adjacent path to north",
    "Status": "Verified",
    "Name": "Andrew (Boy) Charlton Pool",
    "Name2": ""
  },
  {
    "FID": 83,
    "Y_Lat": -33.8780002,
    "X_Lon": 151.2171701,
    "Facility": "Stairs",
    "Street": "Kings Lane",
    "Notes": "Steps only (no wheelchair access)",
    "Status": "Verified",
    "Name": "Kings Lane Stairs",
    "Name2": ""
  },
  {
    "FID": 84,
    "Y_Lat": -33.87567095,
    "X_Lon": 151.2104389,
    "Facility": "Stairs",
    "Street": "ANZAC Memorial",
    "Notes": "Use adjacent path",
    "Status": "Verified",
    "Name": "Hyde Park South",
    "Name2": ""
  },
  {
    "FID": 85,
    "Y_Lat": -33.85715985,
    "X_Lon": 151.2026796,
    "Facility": "Stairs",
    "Street": "Dalgety Road",
    "Notes": "Steps only (no wheelchair access)",
    "Status": "Verified",
    "Name": "Dalgety Road Steps",
    "Name2": ""
  },
  {
    "FID": 86,
    "Y_Lat": -33.86664725,
    "X_Lon": 151.2191227,
    "Facility": "Stairs",
    "Street": "The Royal Botanic Garden",
    "Notes": "Steps only (no wheelchair access)",
    "Status": "Verified",
    "Name": "Lincoln Crescent Stairs",
    "Name2": ""
  },
  {
    "FID": 87,
    "Y_Lat": -33.86054317,
    "X_Lon": 151.2087373,
    "Facility": "Stairs",
    "Street": "George Street",
    "Notes": "Use alternate path",
    "Status": "Verified",
    "Name": "First Fleet Park",
    "Name2": ""
  },
  {
    "FID": 88,
    "Y_Lat": -33.85784158,
    "X_Lon": 151.2006146,
    "Facility": "Stairs",
    "Street": "Barangaroo Reserve",
    "Notes": "",
    "Status": "Verified",
    "Name": "Barangaroo",
    "Name2": ""
  },
  {
    "FID": 89,
    "Y_Lat": -33.86480445,
    "X_Lon": 151.215029,
    "Facility": "Stairs",
    "Street": "The Royal Botanic Garden",
    "Notes": "Steps only (no wheelchair access)",
    "Status": "Verified",
    "Name": "Pioneer Garden Steps",
    "Name2": ""
  },
  {
    "FID": 90,
    "Y_Lat": -33.85833925,
    "X_Lon": 151.2084847,
    "Facility": "Stairs",
    "Street": "Mill Lane corner of Playfair Street",
    "Notes": "Use lift on Kendall Lane",
    "Status": "Verified",
    "Name": "Mill Lane Steps",
    "Name2": ""
  },
  {
    "FID": 91,
    "Y_Lat": -33.85905397,
    "X_Lon": 151.2068178,
    "Facility": "Stairs",
    "Street": "Cumberland Street",
    "Notes": "Steps only (no wheelchair access)",
    "Status": "Verified",
    "Name": "Bridge Stairs",
    "Name2": ""
  },
  {
    "FID": 92,
    "Y_Lat": -33.86573205,
    "X_Lon": 151.2034582,
    "Facility": "Stairs",
    "Street": "Sussex Street",
    "Notes": "Use Sussex Street Bridge lift",
    "Status": "Verified",
    "Name": "Sussex Street Stairs",
    "Name2": ""
  },
  {
    "FID": 93,
    "Y_Lat": -33.87407181,
    "X_Lon": 151.2070088,
    "Facility": "Stairs",
    "Street": "George Street",
    "Notes": "Use lift access to north",
    "Status": "Verified",
    "Name": "Town Hall Station",
    "Name2": ""
  },
  {
    "FID": 94,
    "Y_Lat": -33.8564668,
    "X_Lon": 151.2068043,
    "Facility": "Stairs",
    "Street": "Pottinger Street",
    "Notes": "Steps only (no wheelchair access)",
    "Status": "Verified",
    "Name": "Cliff Top Walk Stairs",
    "Name2": ""
  },
  {
    "FID": 95,
    "Y_Lat": -33.86449628,
    "X_Lon": 151.2128398,
    "Facility": "Stairs",
    "Street": "The Royal Botanic Garden",
    "Notes": "Use Morshead Fountain Gate entrance",
    "Status": "Verified",
    "Name": "Palace Garden Gate",
    "Name2": ""
  },
  {
    "FID": 96,
    "Y_Lat": -33.87294625,
    "X_Lon": 151.201873,
    "Facility": "Stairs",
    "Street": "Druitt Street",
    "Notes": "Use lift access",
    "Status": "Verified",
    "Name": "Cockle Bay Wharf Footbridge",
    "Name2": ""
  },
  {
    "FID": 97,
    "Y_Lat": -33.86270423,
    "X_Lon": 151.2074086,
    "Facility": "Stairs",
    "Street": "George Street",
    "Notes": "Use adjacent ramp",
    "Status": "Verified",
    "Name": "Grosvenor Place",
    "Name2": ""
  },
  {
    "FID": 98,
    "Y_Lat": -33.85834445,
    "X_Lon": 151.2092669,
    "Facility": "Stairs",
    "Street": "Circular Quay West",
    "Notes": "Steps only (no wheelchair access)",
    "Status": "Verified",
    "Name": "Bethel Steps",
    "Name2": ""
  },
  {
    "FID": 99,
    "Y_Lat": -33.8603803,
    "X_Lon": 151.2096232,
    "Facility": "Stairs",
    "Street": "Circular Quay West",
    "Notes": "Steps only (no wheelchair access)",
    "Status": "Verified",
    "Name": "Harbour Masters Steps",
    "Name2": ""
  },
  {
    "FID": 100,
    "Y_Lat": -33.85620415,
    "X_Lon": 151.2019925,
    "Facility": "Stairs",
    "Street": "Barangaroo Reserve",
    "Notes": "",
    "Status": "Verified",
    "Name": "Barangaroo",
    "Name2": ""
  },
  {
    "FID": 101,
    "Y_Lat": -33.8688994,
    "X_Lon": 151.2025021,
    "Facility": "Stairs",
    "Street": "Lime Street",
    "Notes": "Use lift access corner of Lime Street and King Street",
    "Status": "Verified",
    "Name": "Lime Street Steps",
    "Name2": ""
  },
  {
    "FID": 102,
    "Y_Lat": -33.87967135,
    "X_Lon": 151.2042783,
    "Facility": "Stairs",
    "Street": "Hay Street",
    "Notes": "Internal lift",
    "Status": "Verified",
    "Name": "Market City entrance",
    "Name2": ""
  },
  {
    "FID": 103,
    "Y_Lat": -33.85662266,
    "X_Lon": 151.2077881,
    "Facility": "Stairs",
    "Street": "George Street",
    "Notes": "Steps only (no wheelchair access)",
    "Status": "Verified",
    "Name": "Tallawoladah Stairs",
    "Name2": ""
  },
  {
    "FID": 104,
    "Y_Lat": -33.86112609,
    "X_Lon": 151.2028693,
    "Facility": "Stairs",
    "Street": "Hickson Road",
    "Notes": "Steps only (no wheelchair access)",
    "Status": "Verified",
    "Name": "High Street Stairs",
    "Name2": ""
  },
  {
    "FID": 105,
    "Y_Lat": -33.86878442,
    "X_Lon": 151.203348,
    "Facility": "Stairs",
    "Street": "Sussex Street",
    "Notes": "Use adjacent footbridge",
    "Status": "Verified",
    "Name": "Sussex Street Stairs",
    "Name2": ""
  },
  {
    "FID": 106,
    "Y_Lat": -33.86555775,
    "X_Lon": 151.2202064,
    "Facility": "Stairs",
    "Street": "The Royal Botanic Garden",
    "Notes": "Steps only (no wheelchair access)",
    "Status": "Verified",
    "Name": "Woolloomooloo Bay Stairs",
    "Name2": ""
  },
  {
    "FID": 107,
    "Y_Lat": -33.8660178,
    "X_Lon": 151.2071657,
    "Facility": "Stairs",
    "Street": "Between Wynyard Lane and George Street",
    "Notes": "Contact centre for further information",
    "Status": "Verified",
    "Name": "Menzies Arcade East",
    "Name2": ""
  },
  {
    "FID": 108,
    "Y_Lat": -33.86084306,
    "X_Lon": 151.2040968,
    "Facility": "Stairs",
    "Street": "Upper Fort Street",
    "Notes": "Steps only (no wheelchair access)",
    "Status": "Verified",
    "Name": "Agar Steps",
    "Name2": ""
  },
  {
    "FID": 109,
    "Y_Lat": -33.8659827,
    "X_Lon": 151.2065419,
    "Facility": "Stairs",
    "Street": "Between Wynyard Lane and George Street",
    "Notes": "Contact centre for further information",
    "Status": "Verified",
    "Name": "Menzies Arcade West",
    "Name2": ""
  },
  {
    "FID": 110,
    "Y_Lat": -33.85825755,
    "X_Lon": 151.2006384,
    "Facility": "Stairs",
    "Street": "Barangaroo Reserve",
    "Notes": "",
    "Status": "Verified",
    "Name": "Barangaroo",
    "Name2": ""
  },
  {
    "FID": 111,
    "Y_Lat": -33.8668,
    "X_Lon": 151.2133195,
    "Facility": "Stairs",
    "Street": "Hospital Road",
    "Notes": "Use ramp at Macquarie Street building entrance",
    "Status": "Verified",
    "Name": "State Library of NSW",
    "Name2": ""
  },
  {
    "FID": 112,
    "Y_Lat": -33.8684583,
    "X_Lon": 151.2018127,
    "Facility": "Stairs",
    "Street": "Lime Street",
    "Notes": "Use adjacent ramp to south",
    "Status": "Verified",
    "Name": "King Street Wharf",
    "Name2": ""
  },
  {
    "FID": 113,
    "Y_Lat": -33.85676863,
    "X_Lon": 151.2007171,
    "Facility": "Stairs",
    "Street": "Barangaroo Reserve",
    "Notes": "",
    "Status": "Verified",
    "Name": "Barangaroo",
    "Name2": ""
  },
  {
    "FID": 114,
    "Y_Lat": -33.8705665,
    "X_Lon": 151.2132554,
    "Facility": "Stairs",
    "Street": "Hyde Park - corner of Prince Albert Road and St Marys Road",
    "Notes": "Follow footpath down St Marys Road and enter via main carpark entrance on Sir John Young Crescent",
    "Status": "Verified",
    "Name": "The Domain Car Park Express Walkway",
    "Name2": ""
  },
  {
    "FID": 115,
    "Y_Lat": -33.85655695,
    "X_Lon": 151.20694,
    "Facility": "Stairs",
    "Street": "Lower Fort Street",
    "Notes": "Steps only (no wheelchair access)",
    "Status": "Verified",
    "Name": "Cliff Top Walk Stairs",
    "Name2": ""
  },
  {
    "FID": 116,
    "Y_Lat": -33.86885589,
    "X_Lon": 151.2018132,
    "Facility": "Stairs",
    "Street": "Lime Street",
    "Notes": "Use adjacent ramp",
    "Status": "Verified",
    "Name": "King Street Wharf",
    "Name2": ""
  },
  {
    "FID": 117,
    "Y_Lat": -33.8818447,
    "X_Lon": 151.2019365,
    "Facility": "Stairs",
    "Street": "Harris Street",
    "Notes": "Ramp access via Paddy's Market in Hay Street",
    "Status": "Verified",
    "Name": "The Goods Line",
    "Name2": ""
  },
  {
    "FID": 118,
    "Y_Lat": -33.85753345,
    "X_Lon": 151.2035653,
    "Facility": "Stairs",
    "Street": "Windmill Street",
    "Notes": "Use Hickson Road (beware of steep gradient)",
    "Status": "Verified",
    "Name": "Windmill Steps",
    "Name2": ""
  },
  {
    "FID": 119,
    "Y_Lat": -33.87370107,
    "X_Lon": 151.211306,
    "Facility": "Stairs",
    "Street": "Park Street",
    "Notes": "Enter Hyde Park via ramp access on Elizabeth St near Bathurst St",
    "Status": "Verified",
    "Name": "Hyde Park North",
    "Name2": ""
  },
  {
    "FID": 120,
    "Y_Lat": -33.87646067,
    "X_Lon": 151.2099568,
    "Facility": "Stairs",
    "Street": "Museum Station entrance",
    "Notes": "Enter Hyde Park via ramp access on Elizabeth St near Bathurst St",
    "Status": "Verified",
    "Name": "Hyde Park South",
    "Name2": ""
  },
  {
    "FID": 121,
    "Y_Lat": -33.86798335,
    "X_Lon": 151.2181065,
    "Facility": "Stairs",
    "Street": "The Domain",
    "Notes": "Steps only (no wheelchair access)",
    "Status": "Verified",
    "Name": "The Domain",
    "Name2": ""
  },
  {
    "FID": 122,
    "Y_Lat": -33.88302733,
    "X_Lon": 151.2069968,
    "Facility": "Stairs",
    "Street": "Eddy Avenue",
    "Notes": "Use lift access",
    "Status": "Verified",
    "Name": "Central Station",
    "Name2": ""
  },
  {
    "FID": 123,
    "Y_Lat": -33.86127823,
    "X_Lon": 151.2214051,
    "Facility": "Stairs",
    "Street": "The Royal Botanic Garden",
    "Notes": "Use Yurong Gate entrance",
    "Status": "Verified",
    "Name": "Fleet Steps",
    "Name2": ""
  },
  {
    "FID": 124,
    "Y_Lat": -33.86675065,
    "X_Lon": 151.2135298,
    "Facility": "Stairs",
    "Street": "Hospital Road",
    "Notes": "Use ramp at Macquarie Street building entrance",
    "Status": "Verified",
    "Name": "State Library of NSW",
    "Name2": ""
  },
  {
    "FID": 125,
    "Y_Lat": -33.85808245,
    "X_Lon": 151.2023657,
    "Facility": "Stairs",
    "Street": "Barangaroo Reserve",
    "Notes": "",
    "Status": "Verified",
    "Name": "Barangaroo",
    "Name2": ""
  },
  {
    "FID": 126,
    "Y_Lat": -33.87325203,
    "X_Lon": 151.2071241,
    "Facility": "Stairs",
    "Street": "George Street",
    "Notes": "Use lift access to south",
    "Status": "Verified",
    "Name": "Town Hall Station",
    "Name2": ""
  },
  {
    "FID": 127,
    "Y_Lat": -33.8589328,
    "X_Lon": 151.2130271,
    "Facility": "Stairs",
    "Street": "Circular Quay East",
    "Notes": "Use adjacent ramp",
    "Status": "Verified",
    "Name": "Circular Quay Lower Forecourt",
    "Name2": ""
  },
  {
    "FID": 128,
    "Y_Lat": -33.86099395,
    "X_Lon": 151.2040738,
    "Facility": "Stairs",
    "Street": "Agar Steps Laneway",
    "Notes": "Steps only (no wheelchair access)",
    "Status": "Verified",
    "Name": "Agar Steps",
    "Name2": ""
  },
  {
    "FID": 129,
    "Y_Lat": -33.86147981,
    "X_Lon": 151.2130423,
    "Facility": "Stairs",
    "Street": "Macquarie Street",
    "Notes": "Use lift access on Circular Quay East (access via Albert Street) - beware of steep gradient",
    "Status": "Verified",
    "Name": "Cahill Walkway",
    "Name2": ""
  },
  {
    "FID": 130,
    "Y_Lat": -33.87657556,
    "X_Lon": 151.2100242,
    "Facility": "Stairs",
    "Street": "Museum Station entrance",
    "Notes": "Enter Hyde Park via ramp access on Elizabeth St near Bathurst St",
    "Status": "Verified",
    "Name": "Hyde Park South",
    "Name2": ""
  },
  {
    "FID": 131,
    "Y_Lat": -33.8804161,
    "X_Lon": 151.2014122,
    "Facility": "Stairs",
    "Street": "Mary Ann Street",
    "Notes": "Use Ultimo Road",
    "Status": "Verified",
    "Name": "UTS Building 8 (Dr Chau Chak Wing Building)",
    "Name2": ""
  },
  {
    "FID": 132,
    "Y_Lat": -33.8657239,
    "X_Lon": 151.204144,
    "Facility": "Stairs",
    "Street": "Kent Street",
    "Notes": "Use internal lift",
    "Status": "Verified",
    "Name": "Westpac Place Stairs",
    "Name2": ""
  },
  {
    "FID": 133,
    "Y_Lat": -33.87190788,
    "X_Lon": 151.2134666,
    "Facility": "Stairs",
    "Street": "Cathedral Street",
    "Notes": "Use ramp access near College Street",
    "Status": "Verified",
    "Name": "Cathedral Square",
    "Name2": ""
  },
  {
    "FID": 134,
    "Y_Lat": -33.87358364,
    "X_Lon": 151.2070771,
    "Facility": "Stairs",
    "Street": "George Street",
    "Notes": "Use lift access to south",
    "Status": "Verified",
    "Name": "Town Hall Station",
    "Name2": ""
  },
  {
    "FID": 135,
    "Y_Lat": -33.85956185,
    "X_Lon": 151.2073221,
    "Facility": "Stairs",
    "Street": "Gloucester Street",
    "Notes": "Steps only (no wheelchair access)",
    "Status": "Verified",
    "Name": "Cambridge Street Stairs",
    "Name2": ""
  },
  {
    "FID": 136,
    "Y_Lat": -33.8614833,
    "X_Lon": 151.2049317,
    "Facility": "Stairs",
    "Street": "Upper Fort Street",
    "Notes": "Steps only (no wheelchair access)",
    "Status": "Verified",
    "Name": "National Trust Centre",
    "Name2": ""
  },
  {
    "FID": 137,
    "Y_Lat": -33.8587317,
    "X_Lon": 151.2097324,
    "Facility": "Stairs",
    "Street": "Circular Quay West",
    "Notes": "Use internal lift",
    "Status": "Verified",
    "Name": "Overseas Passenger Terminal",
    "Name2": ""
  },
  {
    "FID": 138,
    "Y_Lat": -33.85820645,
    "X_Lon": 151.2019198,
    "Facility": "Stairs",
    "Street": "Barangaroo Reserve",
    "Notes": "",
    "Status": "Verified",
    "Name": "Barangaroo",
    "Name2": ""
  },
  {
    "FID": 139,
    "Y_Lat": -33.85947435,
    "X_Lon": 151.2093274,
    "Facility": "Stairs",
    "Street": "Argyle Street",
    "Notes": "Use alternate path",
    "Status": "Verified",
    "Name": "Museum of Contemporary Art",
    "Name2": ""
  },
  {
    "FID": 140,
    "Y_Lat": -33.86076665,
    "X_Lon": 151.2032904,
    "Facility": "Stairs",
    "Street": "Lance Lane",
    "Notes": "Use alternate path",
    "Status": "Verified",
    "Name": "Lance Lane Stairs",
    "Name2": ""
  },
  {
    "FID": 141,
    "Y_Lat": -33.87392676,
    "X_Lon": 151.2070273,
    "Facility": "Stairs",
    "Street": "George Street",
    "Notes": "Use lift access",
    "Status": "Verified",
    "Name": "Town Hall Station",
    "Name2": ""
  },
  {
    "FID": 142,
    "Y_Lat": -33.8564776,
    "X_Lon": 151.2018662,
    "Facility": "Stairs",
    "Street": "Barangaroo Reserve",
    "Notes": "",
    "Status": "Verified",
    "Name": "Barangaroo",
    "Name2": ""
  },
  {
    "FID": 143,
    "Y_Lat": -33.86854516,
    "X_Lon": 151.2187239,
    "Facility": "Stairs",
    "Street": "Corner of Cowper Wharf Road and Lincoln Crescent",
    "Notes": "Steps only (no wheelchair access)",
    "Status": "Verified",
    "Name": "Cowper Wharf Road Steps",
    "Name2": ""
  },
  {
    "FID": 144,
    "Y_Lat": -33.8766574,
    "X_Lon": 151.2019872,
    "Facility": "Stairs",
    "Street": "Darling Harbour",
    "Notes": "Use adjacent ramp",
    "Status": "Verified",
    "Name": "Chinese Gardens",
    "Name2": ""
  },
  {
    "FID": 145,
    "Y_Lat": -33.8634618,
    "X_Lon": 151.2152146,
    "Facility": "Stairs",
    "Street": "The Royal Botanic Garden",
    "Notes": "Use Government House Gate entrance",
    "Status": "Verified",
    "Name": "Palm Grove",
    "Name2": ""
  },
  {
    "FID": 146,
    "Y_Lat": -33.86708275,
    "X_Lon": 151.2177389,
    "Facility": "Stairs",
    "Street": "The Royal Botanic Garden",
    "Notes": "Use Woolloomooloo Gate entrance",
    "Status": "Verified",
    "Name": "Royal Botanic Gardens Offices",
    "Name2": ""
  },
  {
    "FID": 147,
    "Y_Lat": -33.85707969,
    "X_Lon": 151.2052958,
    "Facility": "Stairs",
    "Street": "Hickson Road",
    "Notes": "Steps only (no wheelchair access)",
    "Status": "Verified",
    "Name": "Windmill Street Stairs",
    "Name2": ""
  },
  {
    "FID": 148,
    "Y_Lat": -33.87067965,
    "X_Lon": 151.2224745,
    "Facility": "Stairs",
    "Street": "Brougham Street",
    "Notes": "Steps only (no wheelchair access)",
    "Status": "Verified",
    "Name": "Hordern Stairs",
    "Name2": ""
  },
  {
    "FID": 149,
    "Y_Lat": -33.8741078,
    "X_Lon": 151.2058053,
    "Facility": "Stairs",
    "Street": "Bathurst Street",
    "Notes": "Use George Street entrance",
    "Status": "Verified",
    "Name": "Town Hall Square Stairs",
    "Name2": ""
  },
  {
    "FID": 150,
    "Y_Lat": -33.876676,
    "X_Lon": 151.2107864,
    "Facility": "Stairs",
    "Street": "Liverpool Street",
    "Notes": "Use adjacent path",
    "Status": "Verified",
    "Name": "Hyde Park South",
    "Name2": ""
  },
  {
    "FID": 151,
    "Y_Lat": -33.8650279,
    "X_Lon": 151.2137962,
    "Facility": "Stairs",
    "Street": "The Royal Botanic Garden",
    "Notes": "Use Morshead Fountain Gate entrance",
    "Status": "Verified",
    "Name": "Pioneer Garden",
    "Name2": ""
  },
  {
    "FID": 152,
    "Y_Lat": -33.8784439,
    "X_Lon": 151.215878,
    "Facility": "Stairs",
    "Street": "Langley Street",
    "Notes": "Use alternate path",
    "Status": "Verified",
    "Name": "Langley Street Steps",
    "Name2": ""
  },
  {
    "FID": 153,
    "Y_Lat": -33.86047011,
    "X_Lon": 151.2094894,
    "Facility": "Stairs",
    "Street": "Circular Quay East",
    "Notes": "Use alternate path",
    "Status": "Verified",
    "Name": "First Fleet Park",
    "Name2": ""
  },
  {
    "FID": 154,
    "Y_Lat": -33.8666609,
    "X_Lon": 151.2194886,
    "Facility": "Stairs",
    "Street": "Lincoln Crescent",
    "Notes": "Steps only (no wheelchair access)",
    "Status": "Verified",
    "Name": "Lincoln Crescent Steps",
    "Name2": ""
  },
  {
    "FID": 155,
    "Y_Lat": -33.87303715,
    "X_Lon": 151.2067674,
    "Facility": "Stairs",
    "Street": "Druitt Street",
    "Notes": "Use adjacent ramp",
    "Status": "Verified",
    "Name": "Town Hall",
    "Name2": ""
  },
  {
    "FID": 156,
    "Y_Lat": -33.8595998,
    "X_Lon": 151.2217735,
    "Facility": "Stairs",
    "Street": "The Royal Botanic Garden",
    "Notes": "Use adjacent ramp (beware of steep gradient)",
    "Status": "Verified",
    "Name": "Mrs Macquaries Chair Steps",
    "Name2": ""
  },
  {
    "FID": 157,
    "Y_Lat": -33.8688901,
    "X_Lon": 151.2179575,
    "Facility": "Stairs",
    "Street": "Sir John Young Crescent",
    "Notes": "Steps only (no wheelchair access)",
    "Status": "Verified",
    "Name": "Art Gallery of NSW",
    "Name2": ""
  },
  {
    "FID": 158,
    "Y_Lat": -33.8597997,
    "X_Lon": 151.2097497,
    "Facility": "Stairs",
    "Street": "Circular Quay West",
    "Notes": "Steps only (no wheelchair access)",
    "Status": "Verified",
    "Name": "Commissioners Steps",
    "Name2": ""
  },
  {
    "FID": 159,
    "Y_Lat": -33.85653435,
    "X_Lon": 151.2015299,
    "Facility": "Stairs",
    "Street": "Barangaroo Reserve",
    "Notes": "",
    "Status": "Verified",
    "Name": "Barangaroo",
    "Name2": ""
  },
  {
    "FID": 160,
    "Y_Lat": -33.86183167,
    "X_Lon": 151.205978,
    "Facility": "Stairs",
    "Street": "Essex Street",
    "Notes": "Steps only (no wheelchair access)",
    "Status": "Verified",
    "Name": "Essex Street Steps",
    "Name2": ""
  },
  {
    "FID": 161,
    "Y_Lat": -33.866811,
    "X_Lon": 151.206115,
    "Facility": "Stairs",
    "Street": "Wynyard Street",
    "Notes": "Use station lift or York Street (beware of steep gradient)",
    "Status": "Verified",
    "Name": "Wynyard Park South",
    "Name2": ""
  },
  {
    "FID": 162,
    "Y_Lat": -33.865826,
    "X_Lon": 151.206235,
    "Facility": "Stairs",
    "Street": "Carrington Street",
    "Notes": "Use station lift or Margaret Street (beware of steep gradient)",
    "Status": "Verified",
    "Name": "Wynyard Park North",
    "Name2": ""
  },
  {
    "FID": 163,
    "Y_Lat": -33.875594,
    "X_Lon": 151.209707,
    "Facility": "Stairs",
    "Street": "Elizabeth Street",
    "Notes": "Use ramp access to north",
    "Status": "Verified",
    "Name": "Hyde Park South",
    "Name2": ""
  },
  {
    "FID": 164,
    "Y_Lat": -33.873384,
    "X_Lon": 151.211375,
    "Facility": "Stairs",
    "Street": "Park Street",
    "Notes": "Use ramp access at Elizabeth Street entrance",
    "Status": "Verified",
    "Name": "Hyde Park North",
    "Name2": ""
  },
  {
    "FID": 165,
    "Y_Lat": -33.873507,
    "X_Lon": 151.212369,
    "Facility": "Stairs",
    "Street": "Corner of Park Street and College Street",
    "Notes": "Use ramp access at College Street entrance opposite Cathedral Square",
    "Status": "Verified",
    "Name": "Hyde Park North",
    "Name2": ""
  },
  {
    "FID": 166,
    "Y_Lat": -33.863756,
    "X_Lon": 151.205532,
    "Facility": "Stairs",
    "Street": "York Street",
    "Notes": "Use adjacent path on Lang Street",
    "Status": "Verified",
    "Name": "Lang Park",
    "Name2": ""
  },
  {
    "FID": 167,
    "Y_Lat": -33.873281,
    "X_Lon": 151.211675,
    "Facility": "Stairs",
    "Street": "Sandringham Gardens",
    "Notes": "Use ramp access at College Street entrance opposite Cathedral Square",
    "Status": "Verified",
    "Name": "Hyde Park North",
    "Name2": ""
  },
  {
    "FID": 168,
    "Y_Lat": -33.874913,
    "X_Lon": 151.210793,
    "Facility": "Stairs",
    "Street": "Pool of Reflection",
    "Notes": "Use adjacent path",
    "Status": "Verified",
    "Name": "Hyde Park South",
    "Name2": ""
  },
  {
    "FID": 169,
    "Y_Lat": -33.873877,
    "X_Lon": 151.212346,
    "Facility": "Stairs",
    "Street": "Corner of Park Street and College Street",
    "Notes": "Use ramp access at Liverpool Street entrance",
    "Status": "Verified",
    "Name": "Hyde Park South",
    "Name2": ""
  },
  {
    "FID": 170,
    "Y_Lat": -33.874945,
    "X_Lon": 151.212251,
    "Facility": "Stairs",
    "Street": "College Street entrance",
    "Notes": "Use ramp access at Liverpool Street entrance",
    "Status": "Verified",
    "Name": "Hyde Park South",
    "Name2": ""
  },
  {
    "FID": 171,
    "Y_Lat": -33.875917,
    "X_Lon": 151.212106,
    "Facility": "Stairs",
    "Street": "College Street opposite Francis Street",
    "Notes": "Use ramp access at Liverpool Street entrance",
    "Status": "Verified",
    "Name": "Hyde Park South",
    "Name2": ""
  },
  {
    "FID": 172,
    "Y_Lat": -33.87971783,
    "X_Lon": 151.2204621,
    "Facility": "Stairs",
    "Street": "Victoria Street",
    "Notes": "Use adjacent ramp to south",
    "Status": "Verified",
    "Name": "Green Park",
    "Name2": ""
  },
  {
    "FID": 173,
    "Y_Lat": -33.87937961,
    "X_Lon": 151.2208518,
    "Facility": "Stairs",
    "Street": "Corner of Burton Street and Victoria Street",
    "Notes": "Use adjacent ramp",
    "Status": "Verified",
    "Name": "Green Park",
    "Name2": ""
  },
  {
    "FID": 174,
    "Y_Lat": -33.876553,
    "X_Lon": 151.209712,
    "Facility": "Stairs",
    "Street": "Museum Station entrance",
    "Notes": "Enter Hyde Park via ramp access on Elizabeth St near Bathurst St",
    "Status": "Verified",
    "Name": "Hyde Park South",
    "Name2": ""
  },
  {
    "FID": 175,
    "Y_Lat": -33.85669,
    "X_Lon": 151.201822,
    "Facility": "Stairs",
    "Street": "Merriam Street",
    "Notes": "Steps only (no wheelchair access)",
    "Status": "Verified",
    "Name": "Clyne Reserve",
    "Name2": ""
  },
  {
    "FID": 176,
    "Y_Lat": -33.857038,
    "X_Lon": 151.20244,
    "Facility": "Stairs",
    "Street": "Dalgety Road",
    "Notes": "Use adjacent path",
    "Status": "Verified",
    "Name": "Dalgety Road Steps",
    "Name2": ""
  },
  {
    "FID": 177,
    "Y_Lat": -33.866935,
    "X_Lon": 151.206115,
    "Facility": "Stairs",
    "Street": "Carrington Street",
    "Notes": "Use station lift or York Street (beware of steep gradient)",
    "Status": "Verified",
    "Name": "Wynyard Park South",
    "Name2": ""
  },
  {
    "FID": 178,
    "Y_Lat": -33.865841,
    "X_Lon": 151.206268,
    "Facility": "Stairs",
    "Street": "Carrington Street",
    "Notes": "Use station lift or Margaret Street (beware of steep gradient)",
    "Status": "Verified",
    "Name": "Wynyard Park North",
    "Name2": ""
  },
  {
    "FID": 179,
    "Y_Lat": -33.86245621,
    "X_Lon": 151.2064324,
    "Facility": "Stairs",
    "Street": "Harrington Street",
    "Notes": "Use adjacent lift (open 6am-10pm)",
    "Status": "Verified",
    "Name": "Harrington Street Steps",
    "Name2": ""
  },
  {
    "FID": 180,
    "Y_Lat": -33.86202844,
    "X_Lon": 151.2065409,
    "Facility": "Stairs",
    "Street": "Essex Street",
    "Notes": "Steps only (no wheelchair access)",
    "Status": "Verified",
    "Name": "Essex Street Stairs",
    "Name2": ""
  },
  {
    "FID": 181,
    "Y_Lat": -33.86210071,
    "X_Lon": 151.206809,
    "Facility": "Stairs",
    "Street": "Essex Street",
    "Notes": "Steps only (no wheelchair access)",
    "Status": "Verified",
    "Name": "Essex Street Stairs",
    "Name2": ""
  },
  {
    "FID": 182,
    "Y_Lat": -33.86195551,
    "X_Lon": 151.2067413,
    "Facility": "Stairs",
    "Street": "Essex Street",
    "Notes": "Steps only (no wheelchair access)",
    "Status": "Verified",
    "Name": "Essex Street Stairs",
    "Name2": ""
  },
  {
    "FID": 183,
    "Y_Lat": -33.86183181,
    "X_Lon": 151.2063907,
    "Facility": "Stairs",
    "Street": "Essex Street",
    "Notes": "Steps only (no wheelchair access)",
    "Status": "Verified",
    "Name": "Essex Street Stairs",
    "Name2": ""
  },
  {
    "FID": 184,
    "Y_Lat": -33.86168638,
    "X_Lon": 151.2060387,
    "Facility": "Stairs",
    "Street": "Essex Street",
    "Notes": "Steps only (no wheelchair access)",
    "Status": "Verified",
    "Name": "Essex Street Stairs",
    "Name2": ""
  },
  {
    "FID": 185,
    "Y_Lat": -33.86195249,
    "X_Lon": 151.2063062,
    "Facility": "Stairs",
    "Street": "Essex Street",
    "Notes": "Steps only (no wheelchair access)",
    "Status": "Verified",
    "Name": "Essex Street Stairs",
    "Name2": ""
  },
  {
    "FID": 186,
    "Y_Lat": -33.86121392,
    "X_Lon": 151.2073013,
    "Facility": "Stairs",
    "Street": "Gloucester Street near Cahill Expressway",
    "Notes": "Steps only (no wheelchair access)",
    "Status": "Verified",
    "Name": "Gloucester Street Steps",
    "Name2": ""
  },
  {
    "FID": 187,
    "Y_Lat": -33.86115078,
    "X_Lon": 151.2069077,
    "Facility": "Stairs",
    "Street": "Gloucester Street near Cahill Expressway",
    "Notes": "Steps only (no wheelchair access)",
    "Status": "Verified",
    "Name": "Gloucester Street Steps",
    "Name2": ""
  },
  {
    "FID": 188,
    "Y_Lat": -33.86637788,
    "X_Lon": 151.2192716,
    "Facility": "Stairs",
    "Street": "Mrs Macquaries Road",
    "Notes": "Steps only (no wheelchair access)",
    "Status": "Verified",
    "Name": "Finger Wharf",
    "Name2": ""
  },
  {
    "FID": 189,
    "Y_Lat": -33.86022433,
    "X_Lon": 151.2075694,
    "Facility": "Stairs",
    "Street": "Cumberland Place",
    "Notes": "Steps only (no wheelchair access)",
    "Status": "Verified",
    "Name": "Cumberland Place Stairs",
    "Name2": ""
  },
  {
    "FID": 190,
    "Y_Lat": -33.85413647,
    "X_Lon": 151.2085479,
    "Facility": "Stairs",
    "Street": "Lower Fort Street",
    "Notes": "Steps only (no wheelchair access)",
    "Status": "Verified",
    "Name": "Dawes Point Park Steps",
    "Name2": ""
  },
  {
    "FID": 191,
    "Y_Lat": -33.85431158,
    "X_Lon": 151.2086122,
    "Facility": "Stairs",
    "Street": "Lower Fort Street",
    "Notes": "Steps only (no wheelchair access)",
    "Status": "Verified",
    "Name": "Dawes Point Park Steps",
    "Name2": ""
  },
  {
    "FID": 192,
    "Y_Lat": -33.85506482,
    "X_Lon": 151.2099399,
    "Facility": "Stairs",
    "Street": "Hickson Road",
    "Notes": "Steps only (no wheelchair access)",
    "Status": "Verified",
    "Name": "Dawes Point Battery Stairs",
    "Name2": ""
  },
  {
    "FID": 193,
    "Y_Lat": -33.85832578,
    "X_Lon": 151.2078693,
    "Facility": "Stairs",
    "Street": "Gloucester Walk",
    "Notes": "Steps only (no wheelchair access)",
    "Status": "Verified",
    "Name": "Gloucester Walk Stairs",
    "Name2": ""
  },
  {
    "FID": 194,
    "Y_Lat": -33.85795612,
    "X_Lon": 151.2082306,
    "Facility": "Stairs",
    "Street": "Gloucester Walk",
    "Notes": "Steps only (no wheelchair access)",
    "Status": "Verified",
    "Name": "Foundation Park Stairs",
    "Name2": ""
  },
  {
    "FID": 195,
    "Y_Lat": -33.86050543,
    "X_Lon": 151.2079035,
    "Facility": "Stairs",
    "Street": "Globe Street",
    "Notes": "Steps only (no wheelchair access)",
    "Status": "Verified",
    "Name": "Globe Street Stairs",
    "Name2": ""
  },
  {
    "FID": 196,
    "Y_Lat": -33.85993541,
    "X_Lon": 151.2080641,
    "Facility": "Stairs",
    "Street": "Greenway Lane",
    "Notes": "Steps only (no wheelchair access)",
    "Status": "Verified",
    "Name": "Greenway Lane Stairs",
    "Name2": ""
  },
  {
    "FID": 197,
    "Y_Lat": -33.8594222,
    "X_Lon": 151.2084301,
    "Facility": "Stairs",
    "Street": "Nurses Walk",
    "Notes": "Lift access available at Foreshore House",
    "Status": "Verified",
    "Name": "Nurses Walk Stairs",
    "Name2": ""
  },
  {
    "FID": 198,
    "Y_Lat": -33.85738121,
    "X_Lon": 151.2096296,
    "Facility": "Stairs",
    "Street": "Hickson Road",
    "Notes": "Steps only (no wheelchair access)",
    "Status": "Verified",
    "Name": "Custom Officers Stairs",
    "Name2": ""
  },
  {
    "FID": 199,
    "Y_Lat": -33.85757876,
    "X_Lon": 151.2094039,
    "Facility": "Stairs",
    "Street": "Hickson Road",
    "Notes": "Steps only (no wheelchair access)",
    "Status": "Verified",
    "Name": "Wharf House Steps",
    "Name2": ""
  },
  {
    "FID": 200,
    "Y_Lat": -33.85477375,
    "X_Lon": 151.208562,
    "Facility": "Stairs",
    "Street": "Lower Fort Street",
    "Notes": "Steps only (no wheelchair access)",
    "Status": "Verified",
    "Name": "Dawes Point Battery Stairs",
    "Name2": ""
  },
  {
    "FID": 201,
    "Y_Lat": -33.85863942,
    "X_Lon": 151.2052866,
    "Facility": "Stairs",
    "Street": "Argyle Street",
    "Notes": "Steps only (no wheelchair access)",
    "Status": "Verified",
    "Name": "Watson Road Reserve Stairs",
    "Name2": ""
  },
  {
    "FID": 202,
    "Y_Lat": -33.87115744,
    "X_Lon": 151.2038263,
    "Facility": "Stairs",
    "Street": "Sussex Street",
    "Notes": "Use adjacent ramp",
    "Status": "Verified",
    "Name": "Darling Park Stairs",
    "Name2": ""
  },
  {
    "FID": 203,
    "Y_Lat": -33.87084909,
    "X_Lon": 151.2037055,
    "Facility": "Stairs",
    "Street": "Sussex Street",
    "Notes": "Steps only (no wheelchair access)",
    "Status": "Verified",
    "Name": "Loading Dock Stairs",
    "Name2": ""
  },
  {
    "FID": 204,
    "Y_Lat": -33.87341574,
    "X_Lon": 151.2057534,
    "Facility": "Stairs",
    "Street": "Town Hall Square",
    "Notes": "Steps only (no wheelchair access)",
    "Status": "Verified",
    "Name": "Town Hall Square Stairs",
    "Name2": ""
  },
  {
    "FID": 205,
    "Y_Lat": -33.87329621,
    "X_Lon": 151.2055079,
    "Facility": "Stairs",
    "Street": "Town Hall Square",
    "Notes": "Steps only (no wheelchair access)",
    "Status": "Verified",
    "Name": "Town Hall Square Stairs",
    "Name2": ""
  },
  {
    "FID": 206,
    "Y_Lat": -33.86350559,
    "X_Lon": 151.2117309,
    "Facility": "Stairs",
    "Street": "Bridge Street",
    "Notes": "Use adjacent path",
    "Status": "Verified",
    "Name": "Museum of Sydney Stairs",
    "Name2": ""
  },
  {
    "FID": 207,
    "Y_Lat": -33.85880686,
    "X_Lon": 151.2150336,
    "Facility": "Stairs",
    "Street": "The Royal Botanic Garden",
    "Notes": "Steps only (no wheelchair access) - use Queen Elizabeth II Gate",
    "Status": "Verified",
    "Name": "Bennelong Lawn Steps",
    "Name2": ""
  },
  {
    "FID": 208,
    "Y_Lat": -33.85970374,
    "X_Lon": 151.222532,
    "Facility": "Stairs",
    "Street": "The Royal Botanic Garden",
    "Notes": "Use adjacent ramp (beware of steep gradient)",
    "Status": "Verified",
    "Name": "Mrs Macquaries Chair Steps",
    "Name2": ""
  },
  {
    "FID": 209,
    "Y_Lat": -33.87220322,
    "X_Lon": 151.2140508,
    "Facility": "Stairs",
    "Street": "Cathedral Street",
    "Notes": "Steps only (no wheelchair access)",
    "Status": "Verified",
    "Name": "Cook + Phillip Park",
    "Name2": ""
  },
  {
    "FID": 210,
    "Y_Lat": -33.87181306,
    "X_Lon": 151.2129674,
    "Facility": "Stairs",
    "Street": "Cathedral Street",
    "Notes": "Use ramp access near College Street",
    "Status": "Verified",
    "Name": "Cathedral Square",
    "Name2": ""
  },
  {
    "FID": 211,
    "Y_Lat": -33.87283149,
    "X_Lon": 151.2136115,
    "Facility": "Stairs",
    "Street": "College Street",
    "Notes": "Steps only (no wheelchair access)",
    "Status": "Verified",
    "Name": "Cook + Phillip Park",
    "Name2": ""
  },
  {
    "FID": 212,
    "Y_Lat": -33.87285206,
    "X_Lon": 151.214043,
    "Facility": "Stairs",
    "Street": "Yurong Parkway",
    "Notes": "Steps only (no wheelchair access)",
    "Status": "Verified",
    "Name": "Cook + Phillip Park",
    "Name2": ""
  },
  {
    "FID": 213,
    "Y_Lat": -33.88124051,
    "X_Lon": 151.2113407,
    "Facility": "Stairs",
    "Street": "Reservior Street",
    "Notes": "Use path on Smith Street",
    "Status": "Verified",
    "Name": "Reservoir Street Reserve",
    "Name2": ""
  },
  {
    "FID": 214,
    "Y_Lat": -33.88315384,
    "X_Lon": 151.2129871,
    "Facility": "Stairs",
    "Street": "Riley Street",
    "Notes": "Use ramp on Albion Street or Little Albion Street",
    "Status": "Verified",
    "Name": "Frog Hollow Reserve",
    "Name2": ""
  },
  {
    "FID": 215,
    "Y_Lat": -33.88309684,
    "X_Lon": 151.2126107,
    "Facility": "Stairs",
    "Street": "Albion Street",
    "Notes": "Use adjacent ramp (beware of steep gradient)",
    "Status": "Verified",
    "Name": "Frog Hollow Reserve",
    "Name2": ""
  },
  {
    "FID": 216,
    "Y_Lat": -33.88124697,
    "X_Lon": 151.2019105,
    "Facility": "Stairs",
    "Street": "Ultimo Road",
    "Notes": "Ramp access via Paddy's Market in Hay Street",
    "Status": "Verified",
    "Name": "The Goods Line",
    "Name2": ""
  },
  {
    "FID": 217,
    "Y_Lat": -33.88125065,
    "X_Lon": 151.2015026,
    "Facility": "Stairs",
    "Street": "Mary Ann Street",
    "Notes": "Use adjacent path",
    "Status": "Verified",
    "Name": "UTS Building 8 (Dr Chau Chak Wing Building)",
    "Name2": ""
  },
  {
    "FID": 218,
    "Y_Lat": -33.8774702,
    "X_Lon": 151.1993142,
    "Facility": "Stairs",
    "Street": "William Henry Street",
    "Notes": "Use path on Harris Street",
    "Status": "Verified",
    "Name": "Ian Thorpe Aquatic Centre",
    "Name2": ""
  },
  {
    "FID": 219,
    "Y_Lat": -33.87772557,
    "X_Lon": 151.2008232,
    "Facility": "Stairs",
    "Street": "William Henry Street",
    "Notes": "Use adjacent lift",
    "Status": "Verified",
    "Name": "William Henry Street Steps",
    "Name2": ""
  },
  {
    "FID": 220,
    "Y_Lat": -33.87614265,
    "X_Lon": 151.1987212,
    "Facility": "Stairs",
    "Street": "Pyrmont Street",
    "Notes": "Use adjacent ramp (beware of steep gradient)",
    "Status": "Verified",
    "Name": "Exhibition Centre Stairs",
    "Name2": ""
  },
  {
    "FID": 221,
    "Y_Lat": -33.87510226,
    "X_Lon": 151.1971156,
    "Facility": "Stairs",
    "Street": "Harris Street",
    "Notes": "Use adjacent ramp",
    "Status": "Verified",
    "Name": "Harris Street Stairs",
    "Name2": ""
  },
  {
    "FID": 222,
    "Y_Lat": -33.87433856,
    "X_Lon": 151.2015899,
    "Facility": "Stairs",
    "Street": "Darling Quarter",
    "Notes": "Use adjacent lift",
    "Status": "Verified",
    "Name": "Darling Quarter Theatre Stairs",
    "Name2": ""
  },
  {
    "FID": 223,
    "Y_Lat": -33.8697792,
    "X_Lon": 151.2265715,
    "Facility": "Stairs",
    "Street": "Onslow Avenue",
    "Notes": "Use adjacent path",
    "Status": "Verified",
    "Name": "Arthur McElhone Reserve Steps",
    "Name2": ""
  },
  {
    "FID": 224,
    "Y_Lat": -33.867857,
    "X_Lon": 151.212338,
    "Facility": "Hospital",
    "Street": "Macquarie Street",
    "Notes": "Accessible via Macquarie Street and Hospital Road",
    "Status": "Verified",
    "Name": "Sydney Hospital and Sydney Eye Hospital",
    "Name2": ""
  },
  {
    "FID": 225,
    "Y_Lat": -33.878427,
    "X_Lon": 151.208877,
    "Facility": "Off-street secure parking with accessible spaces",
    "Street": "Corner of Goulburn and Elizabeth Streets (enter via Goulburn Street)",
    "Notes": "Designated disabled parking spaces",
    "Status": "Verified",
    "Name": "City of Sydney",
    "Name2": "Goulburn Street Car Park"
  },
  {
    "FID": 226,
    "Y_Lat": -33.86028272,
    "X_Lon": 151.2037494,
    "Facility": "Mobility parking",
    "Street": "Kent Street",
    "Notes": "East side between Windmill Street and Clarence Street",
    "Status": "Verified",
    "Name": "",
    "Name2": ""
  },
  {
    "FID": 227,
    "Y_Lat": -33.856713,
    "X_Lon": 151.205844,
    "Facility": "Mobility parking",
    "Street": "Hickson Road",
    "Notes": "",
    "Status": "Verified",
    "Name": "",
    "Name2": ""
  },
  {
    "FID": 228,
    "Y_Lat": -33.8602297,
    "X_Lon": 151.2026716,
    "Facility": "Mobility parking",
    "Street": "Hickson Road",
    "Notes": "",
    "Status": "Verified",
    "Name": "",
    "Name2": ""
  },
  {
    "FID": 229,
    "Y_Lat": -33.8757247,
    "X_Lon": 151.2045436,
    "Facility": "Mobility parking",
    "Street": "Sussex Street",
    "Notes": "West side between Bathurst Street and Liverpool Street",
    "Status": "Verified",
    "Name": "",
    "Name2": ""
  },
  {
    "FID": 230,
    "Y_Lat": -33.878554,
    "X_Lon": 151.204717,
    "Facility": "Mobility parking",
    "Street": "Sussex Street",
    "Notes": "West side between Goulburn Street and Hay Street",
    "Status": "Verified",
    "Name": "",
    "Name2": ""
  },
  {
    "FID": 231,
    "Y_Lat": -33.88115443,
    "X_Lon": 151.205123,
    "Facility": "Mobility parking",
    "Street": "Rawson Street",
    "Notes": "North side between George Street and Pitt Street",
    "Status": "Verified",
    "Name": "",
    "Name2": ""
  },
  {
    "FID": 232,
    "Y_Lat": -33.88034796,
    "X_Lon": 151.2025492,
    "Facility": "Mobility parking",
    "Street": "Quay Street",
    "Notes": "West side between Hay Street and Ultimo Road",
    "Status": "Verified",
    "Name": "",
    "Name2": ""
  },
  {
    "FID": 233,
    "Y_Lat": -33.88198353,
    "X_Lon": 151.20364,
    "Facility": "Mobility parking",
    "Street": "Quay Street",
    "Notes": "East side between Thomas Street and George Street",
    "Status": "Verified",
    "Name": "",
    "Name2": ""
  },
  {
    "FID": 234,
    "Y_Lat": -33.87929639,
    "X_Lon": 151.2062417,
    "Facility": "Mobility parking",
    "Street": "Campbell Street",
    "Notes": "South side between George Street and Pitt Street",
    "Status": "Verified",
    "Name": "",
    "Name2": ""
  },
  {
    "FID": 235,
    "Y_Lat": -33.880918,
    "X_Lon": 151.205109,
    "Facility": "Mobility parking",
    "Street": "Barlow Street",
    "Notes": "South side between George Street and Pitt Street",
    "Status": "Verified",
    "Name": "",
    "Name2": ""
  },
  {
    "FID": 236,
    "Y_Lat": -33.879805,
    "X_Lon": 151.220535,
    "Facility": "Mobility parking",
    "Street": "Victoria Street",
    "Notes": "",
    "Status": "Verified",
    "Name": "",
    "Name2": ""
  },
  {
    "FID": 237,
    "Y_Lat": -33.8797122,
    "X_Lon": 151.2174623,
    "Facility": "Mobility parking",
    "Street": "Forbes Street",
    "Notes": "West side between Oxford Street and Burton Street",
    "Status": "Verified",
    "Name": "",
    "Name2": ""
  },
  {
    "FID": 238,
    "Y_Lat": -33.870019,
    "X_Lon": 151.220383,
    "Facility": "Mobility parking",
    "Street": "Nicholson Street",
    "Notes": "South side between Bourke Street and Dowling Street",
    "Status": "Verified",
    "Name": "",
    "Name2": ""
  },
  {
    "FID": 239,
    "Y_Lat": -33.870615,
    "X_Lon": 151.221848,
    "Facility": "Mobility parking",
    "Street": "McElhone Street",
    "Notes": "East side between Pring Street and Nesbitt Street",
    "Status": "Verified",
    "Name": "",
    "Name2": ""
  },
  {
    "FID": 240,
    "Y_Lat": -33.873914,
    "X_Lon": 151.220553,
    "Facility": "Mobility parking",
    "Street": "Dowling Street",
    "Notes": "West side between Cathedral Street and William Street",
    "Status": "Verified",
    "Name": "",
    "Name2": ""
  },
  {
    "FID": 241,
    "Y_Lat": -33.871652,
    "X_Lon": 151.216975,
    "Facility": "Mobility parking",
    "Street": "Crown Street",
    "Notes": "East side between Sir John Young Crescent and Cathedral Street",
    "Status": "Verified",
    "Name": "",
    "Name2": ""
  },
  {
    "FID": 242,
    "Y_Lat": -33.86254411,
    "X_Lon": 151.2066935,
    "Facility": "Mobility parking",
    "Street": "Harrington Street",
    "Notes": "West side between Grosvenor Street and Essex Street",
    "Status": "Verified",
    "Name": "",
    "Name2": ""
  },
  {
    "FID": 243,
    "Y_Lat": -33.859934,
    "X_Lon": 151.208622,
    "Facility": "Mobility parking",
    "Street": "George Street",
    "Notes": "West side between Surgeons Court and Suez Canal",
    "Status": "Verified",
    "Name": "",
    "Name2": ""
  },
  {
    "FID": 244,
    "Y_Lat": -33.869787,
    "X_Lon": 151.211115,
    "Facility": "Mobility parking",
    "Street": "St James Road",
    "Notes": "South side between Elizabeth Street and Prince Albert Road",
    "Status": "Verified",
    "Name": "",
    "Name2": ""
  },
  {
    "FID": 245,
    "Y_Lat": -33.87270698,
    "X_Lon": 151.2080599,
    "Facility": "Mobility parking",
    "Street": "Pitt Street",
    "Notes": "West side between Market Street and Park Street (limited hours)",
    "Status": "Verified",
    "Name": "",
    "Name2": ""
  },
  {
    "FID": 246,
    "Y_Lat": -33.8670968,
    "X_Lon": 151.2084169,
    "Facility": "Mobility parking",
    "Street": "Pitt Street",
    "Notes": "West side between Angel Place and Martin Place",
    "Status": "Verified",
    "Name": "",
    "Name2": ""
  },
  {
    "FID": 247,
    "Y_Lat": -33.861488,
    "X_Lon": 151.209151,
    "Facility": "Mobility parking",
    "Street": "Pitt Street",
    "Notes": "West side between Alfred Street and Bridge Street",
    "Status": "Verified",
    "Name": "",
    "Name2": ""
  },
  {
    "FID": 248,
    "Y_Lat": -33.87358058,
    "X_Lon": 151.2115197,
    "Facility": "Mobility parking",
    "Street": "Park Street",
    "Notes": "South side between Elizabeth Street and College Street",
    "Status": "Verified",
    "Name": "",
    "Name2": ""
  },
  {
    "FID": 249,
    "Y_Lat": -33.86818,
    "X_Lon": 151.212117,
    "Facility": "Mobility parking",
    "Street": "Macquarie Street",
    "Notes": "West side between Martin Place and St James Road",
    "Status": "Verified",
    "Name": "",
    "Name2": ""
  },
  {
    "FID": 250,
    "Y_Lat": -33.86332574,
    "X_Lon": 151.2073033,
    "Facility": "Mobility parking",
    "Street": "Grosvenor Street",
    "Notes": "North side between Harrington Street and George Street",
    "Status": "Verified",
    "Name": "",
    "Name2": ""
  },
  {
    "FID": 251,
    "Y_Lat": -33.870726,
    "X_Lon": 151.213086,
    "Facility": "Mobility parking",
    "Street": "College Street",
    "Notes": "East side between Prince Albert Road and Park Street",
    "Status": "Verified",
    "Name": "",
    "Name2": ""
  },
  {
    "FID": 252,
    "Y_Lat": -33.86532441,
    "X_Lon": 151.2106672,
    "Facility": "Mobility parking",
    "Street": "Bligh Street",
    "Notes": "East side between Bent Street and Hunter Street",
    "Status": "Verified",
    "Name": "",
    "Name2": ""
  },
  {
    "FID": 253,
    "Y_Lat": -33.863205,
    "X_Lon": 151.212095,
    "Facility": "Mobility parking",
    "Street": "Bridge Street",
    "Notes": "North side between Phillip Street and Macquarie Street",
    "Status": "Verified",
    "Name": "",
    "Name2": ""
  },
  {
    "FID": 254,
    "Y_Lat": -33.87189477,
    "X_Lon": 151.2139774,
    "Facility": "Mobility parking",
    "Street": "Cathedral Street",
    "Notes": "North side between College Street and St Marys Road",
    "Status": "Verified",
    "Name": "",
    "Name2": ""
  },
  {
    "FID": 255,
    "Y_Lat": -33.868484,
    "X_Lon": 151.217042,
    "Facility": "Mobility parking",
    "Street": "Art Gallery Road",
    "Notes": "East side outside NSW Art Gallery",
    "Status": "Verified",
    "Name": "",
    "Name2": ""
  },
  {
    "FID": 256,
    "Y_Lat": -33.879004,
    "X_Lon": 151.21712,
    "Facility": "Mobility parking",
    "Street": "Bourke Street",
    "Notes": "",
    "Status": "Verified",
    "Name": "",
    "Name2": ""
  },
  {
    "FID": 257,
    "Y_Lat": -33.88206684,
    "X_Lon": 151.2114412,
    "Facility": "Mobility parking",
    "Street": "Ann Street",
    "Notes": "North side between Commonwealth Street and Smith Street",
    "Status": "Verified",
    "Name": "",
    "Name2": ""
  },
  {
    "FID": 258,
    "Y_Lat": -33.88242831,
    "X_Lon": 151.2131411,
    "Facility": "Mobility parking",
    "Street": "Ann Street",
    "Notes": "",
    "Status": "Verified",
    "Name": "",
    "Name2": ""
  },
  {
    "FID": 259,
    "Y_Lat": -33.865127,
    "X_Lon": 151.208635,
    "Facility": "Mobility parking",
    "Street": "Pitt Street",
    "Notes": "West side between Hunter Street and Bond Street (limited hours)",
    "Status": "Verified",
    "Name": "",
    "Name2": ""
  },
  {
    "FID": 260,
    "Y_Lat": -33.860413,
    "X_Lon": 151.222252,
    "Facility": "Mobility parking",
    "Street": "Mrs Macquarie Road",
    "Notes": "",
    "Status": "Verified",
    "Name": "",
    "Name2": ""
  },
  {
    "FID": 261,
    "Y_Lat": -33.86478179,
    "X_Lon": 151.2048752,
    "Facility": "Mobility parking",
    "Street": "Clarence Street",
    "Notes": "East side between Harbour Bridge and Maraget Street",
    "Status": "Verified",
    "Name": "",
    "Name2": ""
  },
  {
    "FID": 262,
    "Y_Lat": -33.86592868,
    "X_Lon": 151.2130867,
    "Facility": "Mobility parking",
    "Street": "Hospital Rd",
    "Notes": "South side near Macquarie Street",
    "Status": "Verified",
    "Name": "",
    "Name2": ""
  },
  {
    "FID": 263,
    "Y_Lat": -33.86838647,
    "X_Lon": 151.2112238,
    "Facility": "Mobility parking",
    "Street": "Phillip Street",
    "Notes": "East side between Martin Place and King Street",
    "Status": "Verified",
    "Name": "",
    "Name2": ""
  },
  {
    "FID": 264,
    "Y_Lat": -33.87641507,
    "X_Lon": 151.2079405,
    "Facility": "Mobility parking",
    "Street": "Pitt Street",
    "Notes": "East side between Bathurst Street and Liverpool Street",
    "Status": "Verified",
    "Name": "",
    "Name2": ""
  },
  {
    "FID": 265,
    "Y_Lat": -33.85940784,
    "X_Lon": 151.2089929,
    "Facility": "Police Station",
    "Street": "George Street",
    "Notes": "Enter via Argyle St",
    "Status": "Verified",
    "Name": "The Rocks Police Station",
    "Name2": ""
  },
  {
    "FID": 266,
    "Y_Lat": -33.87537289,
    "X_Lon": 151.2039025,
    "Facility": "Police Station",
    "Street": "Day Street",
    "Notes": "Enter via Day St or James St",
    "Status": "Verified",
    "Name": "Sydney City Police Station",
    "Name2": ""
  },
  {
    "FID": 267,
    "Y_Lat": -33.87253757,
    "X_Lon": 151.2186751,
    "Facility": "Police Station",
    "Street": "Cathedral Street",
    "Notes": "Enter via Cathedral St",
    "Status": "Verified",
    "Name": "Woolloomooloo Police Station",
    "Name2": ""
  },
  {
    "FID": 268,
    "Y_Lat": -33.87972204,
    "X_Lon": 151.213525,
    "Facility": "Police Station",
    "Street": "Goulburn Street",
    "Notes": "Enter via Goulburn St",
    "Status": "Verified",
    "Name": "Surry Hills Police Station",
    "Name2": ""
  },
  {
    "FID": 269,
    "Y_Lat": -33.86133463,
    "X_Lon": 151.2106512,
    "Facility": "Train station",
    "Street": "Alfred Street",
    "Notes": "Plan your trip at transportnsw.info",
    "Status": "Verified",
    "Name": "Circular Quay Station",
    "Name2": ""
  },
  {
    "FID": 270,
    "Y_Lat": -33.86774664,
    "X_Lon": 151.2108702,
    "Facility": "Train station",
    "Street": "Martin Place",
    "Notes": "Plan your trip at transportnsw.info",
    "Status": "Verified",
    "Name": "Martin Place Station",
    "Name2": ""
  },
  {
    "FID": 271,
    "Y_Lat": -33.86589099,
    "X_Lon": 151.2057202,
    "Facility": "Train station",
    "Street": "George Street",
    "Notes": "Plan your trip at transportnsw.info",
    "Status": "Verified",
    "Name": "Wynyard Station",
    "Name2": ""
  },
  {
    "FID": 272,
    "Y_Lat": -33.87028091,
    "X_Lon": 151.2119548,
    "Facility": "Train station",
    "Street": "St James Road",
    "Notes": "Plan your trip at transportnsw.info",
    "Status": "Verified",
    "Name": "St James Station",
    "Name2": ""
  },
  {
    "FID": 273,
    "Y_Lat": -33.87457163,
    "X_Lon": 151.2219488,
    "Facility": "Train station",
    "Street": "Victoria Road",
    "Notes": "Plan your trip at transportnsw.info",
    "Status": "Verified",
    "Name": "Kings Cross Station",
    "Name2": ""
  },
  {
    "FID": 274,
    "Y_Lat": -33.87421286,
    "X_Lon": 151.2067585,
    "Facility": "Train station",
    "Street": "George Street",
    "Notes": "Plan your trip at transportnsw.info",
    "Status": "Verified",
    "Name": "Town Hall Station",
    "Name2": ""
  },
  {
    "FID": 275,
    "Y_Lat": -33.87624636,
    "X_Lon": 151.209731,
    "Facility": "Train station",
    "Street": "Elizabeth Street",
    "Notes": "Plan your trip at transportnsw.info",
    "Status": "Verified",
    "Name": "Museum Station",
    "Name2": ""
  },
  {
    "FID": 276,
    "Y_Lat": -33.8827249,
    "X_Lon": 151.2064073,
    "Facility": "Train station",
    "Street": "Eddy Avenue",
    "Notes": "Plan your trip at transportnsw.info",
    "Status": "Verified",
    "Name": "Central Station",
    "Name2": ""
  },
  {
    "FID": 277,
    "Y_Lat": -33.8695608,
    "X_Lon": 151.1978246,
    "Facility": "Light rail station",
    "Street": "Murray Street",
    "Notes": "Plan your trip at transportnsw.info",
    "Status": "Verified",
    "Name": "Pyrmont Bay",
    "Name2": ""
  },
  {
    "FID": 278,
    "Y_Lat": -33.87300715,
    "X_Lon": 151.1980888,
    "Facility": "Light rail station",
    "Street": "Darling Drive",
    "Notes": "Plan your trip at transportnsw.info",
    "Status": "Verified",
    "Name": "Convention",
    "Name2": ""
  },
  {
    "FID": 279,
    "Y_Lat": -33.87934538,
    "X_Lon": 151.2026414,
    "Facility": "Light rail station",
    "Street": "Hay Street",
    "Notes": "Plan your trip at transportnsw.info",
    "Status": "Verified",
    "Name": "Haymarket",
    "Name2": ""
  },
  {
    "FID": 280,
    "Y_Lat": -33.87981609,
    "X_Lon": 151.2054527,
    "Facility": "Light rail station",
    "Street": "Hay Street",
    "Notes": "Plan your trip at transportnsw.info",
    "Status": "Verified",
    "Name": "Capitol Square",
    "Name2": ""
  },
  {
    "FID": 281,
    "Y_Lat": -33.88243398,
    "X_Lon": 151.2066918,
    "Facility": "Light rail station",
    "Street": "Eddy Avenue",
    "Notes": "Plan your trip at transportnsw.info",
    "Status": "Verified",
    "Name": "Central",
    "Name2": ""
  },
  {
    "FID": 282,
    "Y_Lat": -33.87740742,
    "X_Lon": 151.1997506,
    "Facility": "Light rail station",
    "Street": "William Henry Street",
    "Notes": "Plan your trip at transportnsw.info",
    "Status": "Verified",
    "Name": "Exhibition Centre",
    "Name2": ""
  },
  {
    "FID": 283,
    "Y_Lat": -33.87978317,
    "X_Lon": 151.2215824,
    "Facility": "Hospital",
    "Street": "Victoria Street",
    "Notes": "Enter via Victoria Street",
    "Status": "Verified",
    "Name": "St Vincent's Hospital",
    "Name2": ""
  },
  {
    "FID": 284,
    "Y_Lat": -33.86069982,
    "X_Lon": 151.2120609,
    "Facility": "Accessible wharf",
    "Street": "",
    "Notes": "Assisted access may be required at low tide. For information about low tides please visit the Bureau of Meteorology tidal website. Gangway and ramp gradients are tide dependent. Plan your trip at transportnsw.info",
    "Status": "",
    "Name": "Circular Quay",
    "Name2": "Wharf 2"
  },
  {
    "FID": 285,
    "Y_Lat": -33.86064171,
    "X_Lon": 151.2115087,
    "Facility": "Accessible wharf",
    "Street": "",
    "Notes": "Assisted access may be required at low tide. For information about low tides please visit the Bureau of Meteorology tidal website. Gangway and ramp gradients are tide dependent. Plan your trip at transportnsw.info",
    "Status": "",
    "Name": "Circular Quay",
    "Name2": "Wharf 3"
  },
  {
    "FID": 286,
    "Y_Lat": -33.86059488,
    "X_Lon": 151.2109949,
    "Facility": "Accessible wharf",
    "Street": "",
    "Notes": "Assisted access may be required at low tide. For information about low tides please visit the Bureau of Meteorology tidal website. Gangway and ramp gradients are tide dependent. Plan your trip at transportnsw.info",
    "Status": "",
    "Name": "Circular Quay",
    "Name2": "Wharf 4"
  },
  {
    "FID": 287,
    "Y_Lat": -33.86054837,
    "X_Lon": 151.2105025,
    "Facility": "Accessible wharf",
    "Street": "",
    "Notes": "Assisted access may be required at low tide. For information about low tides please visit the Bureau of Meteorology tidal website. Gangway and ramp gradients are tide dependent. Plan your trip at transportnsw.info",
    "Status": "",
    "Name": "Circular Quay",
    "Name2": "Wharf 5"
  },
  {
    "FID": 288,
    "Y_Lat": -33.86687036,
    "X_Lon": 151.2008225,
    "Facility": "Accessible wharf",
    "Street": "",
    "Notes": "Plan your trip at transportnsw.info",
    "Status": "",
    "Name": "Darling Harbour",
    "Name2": "Wharf 3"
  },
  {
    "FID": 289,
    "Y_Lat": -33.87168662,
    "X_Lon": 151.2149153,
    "Facility": "Off-street secure parking with accessible spaces",
    "Street": "St Marys Road",
    "Notes": "Designated disabled spaces on Levels 1B and GC",
    "Status": "Verified",
    "Name": "Domain Car Park",
    "Name2": "Domain Car Park"
  },
  {
    "FID": 290,
    "Y_Lat": -33.87108518,
    "X_Lon": 151.2066485,
    "Facility": "Off-street secure parking with accessible spaces",
    "Street": "111 York Street",
    "Notes": "Designated disabled parking spaces",
    "Status": "Verified",
    "Name": "Wilson Parking",
    "Name2": "Queen Victoria Building"
  },
  {
    "FID": 291,
    "Y_Lat": -33.87171459,
    "X_Lon": 151.203776,
    "Facility": "Off-street secure parking with accessible spaces",
    "Street": "201 Sussex Street",
    "Notes": "Designated disabled parking spaces",
    "Status": "Verified",
    "Name": "Wilson Parking",
    "Name2": "Darling Park"
  },
  {
    "FID": 292,
    "Y_Lat": -33.86676385,
    "X_Lon": 151.2083562,
    "Facility": "Off-street secure parking with accessible spaces",
    "Street": "123 Pitt Street (west side between Martin Place and Hunter Street)",
    "Notes": "Designated disabled parking spaces",
    "Status": "Verified",
    "Name": "Wilson Parking",
    "Name2": "Angel Place Car Park"
  },
  {
    "FID": 293,
    "Y_Lat": -33.86700253,
    "X_Lon": 151.2121732,
    "Facility": "Off-street secure parking with accessible spaces",
    "Street": "187 Macquarie Street (west side between Bridge Street and Bent Street)",
    "Notes": "Designated disabled parking spaces",
    "Status": "Verified",
    "Name": "Secure Parking",
    "Name2": "Parkhouse"
  },
  {
    "FID": 294,
    "Y_Lat": -33.86862888,
    "X_Lon": 151.2037547,
    "Facility": "Off-street secure parking with accessible spaces",
    "Street": "132 Sussex Street",
    "Notes": "Designated disabled parking spaces",
    "Status": "Verified",
    "Name": "Secure Parking",
    "Name2": "132 Sussex Street"
  },
  {
    "FID": 295,
    "Y_Lat": -33.87140178,
    "X_Lon": 151.204746,
    "Facility": "Off-street secure parking with accessible spaces",
    "Street": "431 Kent Street (east side between Bathurst Street and Druitt Street)",
    "Notes": "Designated disabled parking spaces",
    "Status": "Verified",
    "Name": "Wilson Parking",
    "Name2": "Citipark Car Park"
  },
  {
    "FID": 296,
    "Y_Lat": -33.87050575,
    "X_Lon": 151.2039881,
    "Facility": "Off-street secure parking with accessible spaces",
    "Street": "186 Sussex Street",
    "Notes": "Designated disabled parking spaces",
    "Status": "Verified",
    "Name": "Secure Parking",
    "Name2": "Allianz Centre Car Park"
  },
  {
    "FID": 297,
    "Y_Lat": -33.87201082,
    "X_Lon": 151.2134574,
    "Facility": "Off-street secure parking with accessible spaces",
    "Street": "2 Cathedral Street",
    "Notes": "Designated disabled parking spaces",
    "Status": "Verified",
    "Name": "Enacon Security Parking",
    "Name2": "Cathedral Car Park"
  },
  {
    "FID": 298,
    "Y_Lat": -33.85920199,
    "X_Lon": 151.2135295,
    "Facility": "Off-street secure parking with accessible spaces",
    "Street": "2A Macquarie Street",
    "Notes": "Designated disabled parking spaces",
    "Status": "Verified",
    "Name": "Wilson Parking",
    "Name2": "Sydney Opera House"
  },
  {
    "FID": 299,
    "Y_Lat": -33.86447305,
    "X_Lon": 151.2062787,
    "Facility": "Off-street secure parking with accessible spaces",
    "Street": "11 Jamison Street",
    "Notes": "Designated disabled parking spaces",
    "Status": "",
    "Name": "Secure Parking",
    "Name2": "Amora Hotel Car Park"
  },
  {
    "FID": 300,
    "Y_Lat": -33.86334784,
    "X_Lon": 151.2037782,
    "Facility": "Off-street secure parking with accessible spaces",
    "Street": "189 Kent Street",
    "Notes": "Designated disabled parking spaces",
    "Status": "",
    "Name": "Secure Parking",
    "Name2": "ADC House Car Park"
  },
  {
    "FID": 301,
    "Y_Lat": -33.86242052,
    "X_Lon": 151.2088658,
    "Facility": "Off-street secure parking with accessible spaces",
    "Street": "35 Pitt Street",
    "Notes": "Designated disabled parking spaces",
    "Status": "",
    "Name": "Secure Parking",
    "Name2": "Atrium Circular Quay Car Park"
  },
  {
    "FID": 302,
    "Y_Lat": -33.86122726,
    "X_Lon": 151.2062143,
    "Facility": "Off-street secure parking with accessible spaces",
    "Street": "176 Cumberland Street",
    "Notes": "Designated disabled parking spaces",
    "Status": "",
    "Name": "Secure Parking",
    "Name2": "Shangri-La Hotel Car Park"
  },
  {
    "FID": 303,
    "Y_Lat": -33.86403733,
    "X_Lon": 151.212566,
    "Facility": "Off-street secure parking with accessible spaces",
    "Street": "131 Macquarie Street",
    "Notes": "Designated disabled parking spaces",
    "Status": "",
    "Name": "Secure Parking",
    "Name2": "131 Macquarie Street Car Park"
  },
  {
    "FID": 304,
    "Y_Lat": -33.87191623,
    "X_Lon": 151.2080167,
    "Facility": "Off-street secure parking with accessible spaces",
    "Street": "259 Pitt Street",
    "Notes": "Designated disabled parking spaces",
    "Status": "",
    "Name": "Secure Parking",
    "Name2": "Hilton Sydney"
  },
  {
    "FID": 305,
    "Y_Lat": -33.86505778,
    "X_Lon": 151.2099399,
    "Facility": "Off-street secure parking with accessible spaces",
    "Street": "6-10 O'Connell Street",
    "Notes": "Designated disabled parking spaces",
    "Status": "",
    "Name": "Secure Parking",
    "Name2": "6-10 O'Connell St Car Park"
  },
  {
    "FID": 306,
    "Y_Lat": -33.86496657,
    "X_Lon": 151.2118019,
    "Facility": "Off-street secure parking with accessible spaces",
    "Street": "100 Phillip Street",
    "Notes": "Designated disabled parking spaces",
    "Status": "",
    "Name": "Secure Parking",
    "Name2": "Aurora Place"
  },
  {
    "FID": 307,
    "Y_Lat": -33.8642811,
    "X_Lon": 151.2085429,
    "Facility": "Off-street secure parking with accessible spaces",
    "Street": "20 Bond Street (enter via Abercrombie Lane)",
    "Notes": "Designated disabled parking spaces",
    "Status": "",
    "Name": "Secure Parking",
    "Name2": "20 Bond Street Car Park"
  },
  {
    "FID": 308,
    "Y_Lat": -33.86782408,
    "X_Lon": 151.2082537,
    "Facility": "Off-street secure parking with accessible spaces",
    "Street": "Pitt Street",
    "Notes": "Designated disabled parking spaces",
    "Status": "",
    "Name": "Secure Parking",
    "Name2": "No. 1 Martin Place"
  },
  {
    "FID": 309,
    "Y_Lat": -33.86548805,
    "X_Lon": 151.2106008,
    "Facility": "Off-street secure parking with accessible spaces",
    "Street": "61-101 Phillip Street (enter via Bligh Street)",
    "Notes": "Designated disabled parking spaces",
    "Status": "",
    "Name": "Secure Parking",
    "Name2": "Sofitel Wentworth Hotel Car Park"
  },
  {
    "FID": 310,
    "Y_Lat": -33.87429333,
    "X_Lon": 151.2078974,
    "Facility": "Off-street secure parking with accessible spaces",
    "Street": "329 Pitt Street",
    "Notes": "Designated disabled parking spaces",
    "Status": "",
    "Name": "Secure Parking",
    "Name2": "Rialto Square Car Park"
  },
  {
    "FID": 311,
    "Y_Lat": -33.86626096,
    "X_Lon": 151.2084725,
    "Facility": "Off-street secure parking with accessible spaces",
    "Street": "109 Pitt Street",
    "Notes": "Designated disabled parking spaces",
    "Status": "",
    "Name": "Secure Parking",
    "Name2": "109 Pitt Street Car Park"
  },
  {
    "FID": 312,
    "Y_Lat": -33.87157772,
    "X_Lon": 151.2092278,
    "Facility": "Off-street secure parking with accessible spaces",
    "Street": "137 Castlereagh Street",
    "Notes": "Designated disabled parking spaces",
    "Status": "",
    "Name": "Secure Parking",
    "Name2": "Piccadilly Car Park"
  },
  {
    "FID": 313,
    "Y_Lat": -33.87661571,
    "X_Lon": 151.2035351,
    "Facility": "Off-street secure parking with accessible spaces",
    "Street": "1 Dixon Street (enter via Harbour Street)",
    "Notes": "Designated disabled parking spaces",
    "Status": "",
    "Name": "Secure Parking",
    "Name2": "Number One Dixon"
  },
  {
    "FID": 314,
    "Y_Lat": -33.87596905,
    "X_Lon": 151.2056216,
    "Facility": "Off-street secure parking with accessible spaces",
    "Street": "528 Kent Street",
    "Notes": "Designated disabled parking spaces",
    "Status": "",
    "Name": "Secure Parking",
    "Name2": "528 Kent Street Car Park"
  },
  {
    "FID": 315,
    "Y_Lat": -33.85958803,
    "X_Lon": 151.2077987,
    "Facility": "Off-street secure parking with accessible spaces",
    "Street": "55 Harrington Street",
    "Notes": "Designated disabled parking spaces",
    "Status": "",
    "Name": "Wilson Parking",
    "Name2": "Clocktower Car Park"
  },
  {
    "FID": 316,
    "Y_Lat": -33.86398377,
    "X_Lon": 151.2061322,
    "Facility": "Off-street secure parking with accessible spaces",
    "Street": "9 Lang Street",
    "Notes": "Designated disabled parking spaces",
    "Status": "",
    "Name": "Wilson Parking",
    "Name2": "259 George St Car Park"
  },
  {
    "FID": 317,
    "Y_Lat": -33.87018769,
    "X_Lon": 151.2055801,
    "Facility": "Off-street secure parking with accessible spaces",
    "Street": "99 York Street (enter via 168 Clarence Street)",
    "Notes": "Designated disabled parking spaces",
    "Status": "",
    "Name": "Secure Parking",
    "Name2": "Bowlers Club"
  },
  {
    "FID": 318,
    "Y_Lat": -33.86643965,
    "X_Lon": 151.2023635,
    "Facility": "Off-street secure parking with accessible spaces",
    "Street": "1 Shelley Street",
    "Notes": "Designated disabled parking spaces",
    "Status": "",
    "Name": "Secure Parking",
    "Name2": "King Street Wharf Car Park"
  },
  {
    "FID": 319,
    "Y_Lat": -33.86835059,
    "X_Lon": 151.2107301,
    "Facility": "Off-street secure parking with accessible spaces",
    "Street": "60 Elizabeth Street",
    "Notes": "Designated disabled parking spaces",
    "Status": "",
    "Name": "Secure Parking",
    "Name2": "60 Elizabeth Street Car Park"
  },
  {
    "FID": 320,
    "Y_Lat": -33.86827269,
    "X_Lon": 151.2061563,
    "Facility": "Off-street secure parking with accessible spaces",
    "Street": "345-363 George Street (enter via York Street)",
    "Notes": "Designated disabled parking spaces",
    "Status": "",
    "Name": "Secure Parking",
    "Name2": "Landmark Car Park"
  },
  {
    "FID": 321,
    "Y_Lat": -33.86907415,
    "X_Lon": 151.2088775,
    "Facility": "Off-street secure parking with accessible spaces",
    "Street": "135 King Street (beneath Glasshouse Shopping Centre)",
    "Notes": "Designated disabled parking spaces",
    "Status": "",
    "Name": "Secure Parking",
    "Name2": "135 King Street Car Park"
  },
  {
    "FID": 322,
    "Y_Lat": -33.86446048,
    "X_Lon": 151.2067821,
    "Facility": "Off-street secure parking with accessible spaces",
    "Street": "60 Margaret Street (enter via Jamison Street)",
    "Notes": "Designated disabled parking spaces",
    "Status": "",
    "Name": "Secure Parking",
    "Name2": "Met Centre Car Park"
  }
];